[
    {
        "name": "Beanies Bar & Sports Grill",
        "type": "bar",
        "cuisine": "Not Specified",
        "latitude": 27.7039631,
        "longitude": -82.4450101,
        "website": null
    },
    {
        "name": "Bob Evans",
        "type": "restaurant",
        "cuisine": "american",
        "latitude": 27.7113039,
        "longitude": -82.3773634,
        "website": null
    },
    {
        "name": "Denny's",
        "type": "restaurant",
        "cuisine": "american",
        "latitude": 27.7114444,
        "longitude": -82.3759609,
        "website": null
    },
    {
        "name": "Popeyes",
        "type": "fast_food",
        "cuisine": "chicken",
        "latitude": 27.7115688,
        "longitude": -82.3753719,
        "website": "https://www.popeyes.com/store-locator/store/restaurant_85132"
    },
    {
        "name": "Wendy's",
        "type": "fast_food",
        "cuisine": "burger",
        "latitude": 27.7115734,
        "longitude": -82.3765959,
        "website": "https://locations.wendys.com/united-states/fl/ruskin/3725-sun-city-center-blvd"
    },
    {
        "name": "Amorette Coffee",
        "type": "cafe",
        "cuisine": "coffee_shop",
        "latitude": 27.7121999,
        "longitude": -82.2979672,
        "website": "https://amorettecoffee.com/"
    },
    {
        "name": "Taco Bell",
        "type": "fast_food",
        "cuisine": "tex-mex",
        "latitude": 27.7128239,
        "longitude": -82.3708296,
        "website": "https://www.tacobell.com/food?store=036138"
    },
    {
        "name": "Burger King",
        "type": "fast_food",
        "cuisine": "burger",
        "latitude": 27.7128692,
        "longitude": -82.3702592,
        "website": "https://www.bk.com/store-locator/store/restaurant_3929"
    },
    {
        "name": "McDonald's",
        "type": "fast_food",
        "cuisine": "burger",
        "latitude": 27.7128811,
        "longitude": -82.3367397,
        "website": "https://www.mcdonalds.com/us/en-us/location/fl/sun-city-center/4896-sun-city-center-blvd/31603.html"
    },
    {
        "name": "Marian's Sub Shop",
        "type": "fast_food",
        "cuisine": "sandwich",
        "latitude": 27.7129873,
        "longitude": -82.4346807,
        "website": null
    },
    {
        "name": "Pizza Hut",
        "type": "restaurant",
        "cuisine": "pizza",
        "latitude": 27.7132946,
        "longitude": -82.3776319,
        "website": "https://locations.pizzahut.com/fl/sun-city-center/712-cypress-village-blvd"
    },
    {
        "name": "KFC",
        "type": "fast_food",
        "cuisine": "chicken",
        "latitude": 27.7135901,
        "longitude": -82.3936283,
        "website": "https://locations.kfc.com/fl/ruskin/3102-college-avenue-east"
    },
    {
        "name": "McDonald's",
        "type": "fast_food",
        "cuisine": "burger",
        "latitude": 27.7136927,
        "longitude": -82.3929676,
        "website": "https://www.mcdonalds.com/us/en-us/location/fl/ruskin/3110-e-college-ave/10194.html"
    },
    {
        "name": "Dunkin'",
        "type": "fast_food",
        "cuisine": "donut;coffee_shop",
        "latitude": 27.7138884,
        "longitude": -82.3764442,
        "website": "https://locations.dunkindonuts.com/en/fl/ruskin/717-cypress-village-blvd/352159"
    },
    {
        "name": "Keke's Breakfast Cafe",
        "type": "restaurant",
        "cuisine": "Not Specified",
        "latitude": 27.7139825,
        "longitude": -82.3697608,
        "website": null
    },
    {
        "name": "Beef 'O' Brady's",
        "type": "restaurant",
        "cuisine": "Not Specified",
        "latitude": 27.7140864,
        "longitude": -82.3764694,
        "website": null
    },
    {
        "name": "Jack's Shack",
        "type": "ice_cream",
        "cuisine": "Not Specified",
        "latitude": 27.714188,
        "longitude": -82.3360074,
        "website": "https://jacksshackiceandcream.com/"
    },
    {
        "name": "Domino's",
        "type": "fast_food",
        "cuisine": "pizza",
        "latitude": 27.7146475,
        "longitude": -82.3933296,
        "website": null
    },
    {
        "name": "The Dog House & More",
        "type": "restaurant",
        "cuisine": "Not Specified",
        "latitude": 27.720126,
        "longitude": -82.4344395,
        "website": null
    },
    {
        "name": "Uncle Joe's New York Diner",
        "type": "restaurant",
        "cuisine": "burger;sandwich",
        "latitude": 27.7270511,
        "longitude": -82.4341781,
        "website": null
    },
    {
        "name": "Sunset Grill at Little Harbor",
        "type": "restaurant",
        "cuisine": "caribbean",
        "latitude": 27.7296498,
        "longitude": -82.4759805,
        "website": "https://www.sunsetgrillfl.com/"
    },
    {
        "name": "Hooks Waterfront Bar & Grill",
        "type": "restaurant",
        "cuisine": "burger",
        "latitude": 27.7301224,
        "longitude": -82.4744808,
        "website": null
    },
    {
        "name": "Ybor Grille Southshore",
        "type": "restaurant",
        "cuisine": "Not Specified",
        "latitude": 27.7346768,
        "longitude": -82.429651,
        "website": "https://yborgrille.com/"
    },
    {
        "name": "McDonald's",
        "type": "fast_food",
        "cuisine": "burger",
        "latitude": 27.7354846,
        "longitude": -82.4294516,
        "website": "https://www.mcdonalds.com/us/en-us/location/fl/ruskin/5001-south-tamiami-trl/5695.html"
    },
    {
        "name": "Burger King",
        "type": "fast_food",
        "cuisine": "burger",
        "latitude": 27.7362193,
        "longitude": -82.4306185,
        "website": "https://www.bk.com/store-locator/store/restaurant_72349"
    },
    {
        "name": "Taco Bell",
        "type": "fast_food",
        "cuisine": "tex-mex",
        "latitude": 27.7380789,
        "longitude": -82.4283979,
        "website": "https://locations.tacobell.com/fl/apollo-beach/5096-us-41-19th-ave-nw.html"
    },
    {
        "name": "The Chattaway",
        "type": "restaurant",
        "cuisine": "burger;fish;fish_and_chips",
        "latitude": 27.748311,
        "longitude": -82.6383324,
        "website": null
    },
    {
        "name": "Old Southeast Market",
        "type": "restaurant",
        "cuisine": "sandwich",
        "latitude": 27.7534515,
        "longitude": -82.6367223,
        "website": null
    },
    {
        "name": "McDonald's",
        "type": "fast_food",
        "cuisine": "burger",
        "latitude": 27.7538774,
        "longitude": -82.6388134,
        "website": "https://www.mcdonalds.com/us/en-us/location/10206.html"
    },
    {
        "name": "Nueva Cantina",
        "type": "restaurant",
        "cuisine": "mexican",
        "latitude": 27.754424,
        "longitude": -82.6388858,
        "website": null
    },
    {
        "name": "Fish Tales",
        "type": "restaurant",
        "cuisine": "seafood",
        "latitude": 27.7555207,
        "longitude": -82.6352217,
        "website": null
    },
    {
        "name": "Lorene's Fish House",
        "type": "restaurant",
        "cuisine": "Not Specified",
        "latitude": 27.7604824,
        "longitude": -82.6631612,
        "website": null
    },
    {
        "name": "Chief's Creole Cafe",
        "type": "restaurant",
        "cuisine": "Not Specified",
        "latitude": 27.7609657,
        "longitude": -82.6631649,
        "website": null
    },
    {
        "name": "The Country Cuban",
        "type": "restaurant",
        "cuisine": "Not Specified",
        "latitude": 27.762922,
        "longitude": -82.2491133,
        "website": null
    },
    {
        "name": "The Campus Grind",
        "type": "cafe",
        "cuisine": "coffee_shop",
        "latitude": 27.7633277,
        "longitude": -82.6344608,
        "website": "https://thecampusgrind.com/"
    },
    {
        "name": "The Tavern at Bayboro",
        "type": "pub",
        "cuisine": "american",
        "latitude": 27.7634415,
        "longitude": -82.6344608,
        "website": "www.tavernatbayboro.com"
    },
    {
        "name": "The Library",
        "type": "restaurant",
        "cuisine": "american;coffee",
        "latitude": 27.7640138,
        "longitude": -82.6397658,
        "website": "https://thelibrarystpete.com/"
    },
    {
        "name": "Beech Kombucha",
        "type": "cafe",
        "cuisine": "kombucha",
        "latitude": 27.764105,
        "longitude": -82.675593,
        "website": null
    },
    {
        "name": "The Nest",
        "type": "fast_food",
        "cuisine": "Not Specified",
        "latitude": 27.7645619,
        "longitude": -82.6374764,
        "website": null
    },
    {
        "name": "Hangar Restaurant and Flight Lounge",
        "type": "restaurant",
        "cuisine": "american",
        "latitude": 27.7646902,
        "longitude": -82.6333298,
        "website": "https://www.thehangarstpete.com/"
    },
    {
        "name": "Cafe Gala",
        "type": "cafe",
        "cuisine": "coffee_shop",
        "latitude": 27.766146,
        "longitude": -82.63125,
        "website": "https://www.thedali.org/"
    },
    {
        "name": "The Chelsea Saint Pete",
        "type": "cafe",
        "cuisine": "coffee_shop",
        "latitude": 27.7663437,
        "longitude": -82.6669425,
        "website": null
    },
    {
        "name": "The Chelsea Saint Pete",
        "type": "cafe",
        "cuisine": "coffee_shop",
        "latitude": 27.7663452,
        "longitude": -82.6669442,
        "website": null
    },
    {
        "name": "C A Cafe",
        "type": "cafe",
        "cuisine": "sandwich",
        "latitude": 27.7670133,
        "longitude": -82.6627282,
        "website": "http://www.c-a-cafe.com"
    },
    {
        "name": "Sunset&Spice",
        "type": "restaurant",
        "cuisine": "caribbean",
        "latitude": 27.7674468,
        "longitude": -82.327302,
        "website": null
    },
    {
        "name": "Domino's",
        "type": "fast_food",
        "cuisine": "pizza",
        "latitude": 27.7674858,
        "longitude": -82.6452615,
        "website": "https://pizza.dominos.com/florida/st-petersburg/365-8th-st-s"
    },
    {
        "name": "First Street Coffee",
        "type": "cafe",
        "cuisine": "coffee_shop",
        "latitude": 27.767488,
        "longitude": -82.634205,
        "website": null
    },
    {
        "name": "The Frog Pond",
        "type": "restaurant",
        "cuisine": "sandwich;coffee_shop;breakfast;lunch",
        "latitude": 27.7678476,
        "longitude": -82.6464285,
        "website": null
    },
    {
        "name": "Mr. Empanada",
        "type": "restaurant",
        "cuisine": "latin_american",
        "latitude": 27.7678535,
        "longitude": -82.6461501,
        "website": null
    },
    {
        "name": "Bento",
        "type": "restaurant",
        "cuisine": "asian",
        "latitude": 27.7679108,
        "longitude": -82.636855,
        "website": null
    },
    {
        "name": "Dominos Ste# 8",
        "type": "fast_food",
        "cuisine": "Not Specified",
        "latitude": 27.7683359,
        "longitude": -82.3365733,
        "website": "https://www.dominos.com/"
    },
    {
        "name": "Waves Crab House",
        "type": "restaurant",
        "cuisine": "Not Specified",
        "latitude": 27.7683815,
        "longitude": -82.3365585,
        "website": "http://www.wavescrabhouse.com"
    },
    {
        "name": "Subway",
        "type": "fast_food",
        "cuisine": "sandwich",
        "latitude": 27.768389,
        "longitude": -82.635787,
        "website": "https://restaurants.subway.com/united-states/fl/st-petersburg/308-3rd-st-south"
    },
    {
        "name": "WEPA Cocina de Puerto Rico",
        "type": "restaurant",
        "cuisine": "puerto_rican",
        "latitude": 27.7685222,
        "longitude": -82.6628553,
        "website": null
    },
    {
        "name": "Dunkin' Donuts",
        "type": "fast_food",
        "cuisine": "donut;coffee_shop",
        "latitude": 27.7686659,
        "longitude": -82.3930694,
        "website": null
    },
    {
        "name": "Habibi Lounge",
        "type": "bar",
        "cuisine": "Not Specified",
        "latitude": 27.7686961,
        "longitude": -82.6434678,
        "website": null
    },
    {
        "name": "China Kitchen",
        "type": "fast_food",
        "cuisine": "chinese",
        "latitude": 27.768757,
        "longitude": -82.63579,
        "website": null
    },
    {
        "name": "Subway",
        "type": "fast_food",
        "cuisine": "sandwich",
        "latitude": 27.7687656,
        "longitude": -82.3930225,
        "website": null
    },
    {
        "name": "The Outfielder Bar & Grill",
        "type": "restaurant",
        "cuisine": "Not Specified",
        "latitude": 27.768854,
        "longitude": -82.6522655,
        "website": null
    },
    {
        "name": "Ballpark and Rec",
        "type": "bar",
        "cuisine": "Not Specified",
        "latitude": 27.7689386,
        "longitude": -82.6523502,
        "website": null
    },
    {
        "name": "Nature's Table",
        "type": "restaurant",
        "cuisine": "Not Specified",
        "latitude": 27.7690413,
        "longitude": -82.6342208,
        "website": null
    },
    {
        "name": "Grazzi",
        "type": "restaurant",
        "cuisine": "italian",
        "latitude": 27.769096,
        "longitude": -82.635761,
        "website": null
    },
    {
        "name": "Kahwa South",
        "type": "cafe",
        "cuisine": "coffee_shop",
        "latitude": 27.76928,
        "longitude": -82.63586,
        "website": null
    },
    {
        "name": "Red Mesa Cantina",
        "type": "restaurant",
        "cuisine": "mexican",
        "latitude": 27.7696597,
        "longitude": -82.6368612,
        "website": null
    },
    {
        "name": "DeSanto Bar",
        "type": "bar",
        "cuisine": "Not Specified",
        "latitude": 27.7696615,
        "longitude": -82.6367564,
        "website": "http://desantobar.com/"
    },
    {
        "name": "Goodson Farms",
        "type": "restaurant",
        "cuisine": "strawberries",
        "latitude": 27.7696747,
        "longitude": -82.2808589,
        "website": null
    },
    {
        "name": "Rococo Steak",
        "type": "restaurant",
        "cuisine": "american;fine_dining;steak_house",
        "latitude": 27.7697086,
        "longitude": -82.642626,
        "website": null
    },
    {
        "name": "Checkers",
        "type": "fast_food",
        "cuisine": "burger",
        "latitude": 27.7697995,
        "longitude": -82.679034,
        "website": "https://checkersandrallys.com/location/checkers-5660-34th-st-s-307382"
    },
    {
        "name": "The Bikery",
        "type": "cafe",
        "cuisine": "coffee_shop",
        "latitude": 27.7699767,
        "longitude": -82.6636919,
        "website": null
    },
    {
        "name": "Park & Rec",
        "type": "bar",
        "cuisine": "Not Specified",
        "latitude": 27.7699926,
        "longitude": -82.6382173,
        "website": null
    },
    {
        "name": "Bad Mother",
        "type": "cafe",
        "cuisine": "Not Specified",
        "latitude": 27.7700132,
        "longitude": -82.6363819,
        "website": null
    },
    {
        "name": "Park & Rec",
        "type": "bar",
        "cuisine": "barbecue",
        "latitude": 27.7700614,
        "longitude": -82.6379107,
        "website": "http://properdtsp.com/"
    },
    {
        "name": "The Avenue",
        "type": "restaurant",
        "cuisine": "burger",
        "latitude": 27.770096,
        "longitude": -82.63754,
        "website": "https://www.theavenuedtsp.com/"
    },
    {
        "name": "Ichicoro Ane",
        "type": "restaurant",
        "cuisine": "ramen;japanese",
        "latitude": 27.7700989,
        "longitude": -82.6364093,
        "website": null
    },
    {
        "name": "Ford's Garage",
        "type": "restaurant",
        "cuisine": "american;burger",
        "latitude": 27.770107,
        "longitude": -82.635745,
        "website": null
    },
    {
        "name": "Fabrica Pizza",
        "type": "restaurant",
        "cuisine": "pizza",
        "latitude": 27.7701116,
        "longitude": -82.6435054,
        "website": "https://www.fabricapizza.com/"
    },
    {
        "name": "Renzo's",
        "type": "restaurant",
        "cuisine": "peruvian",
        "latitude": 27.77015,
        "longitude": -82.63535,
        "website": null
    },
    {
        "name": "Black Crow Coffee",
        "type": "cafe",
        "cuisine": "coffee;coffee_shop",
        "latitude": 27.7704395,
        "longitude": -82.662786,
        "website": "https://www.blackcrowcoffeeco.com/"
    },
    {
        "name": "Baked in the Burg",
        "type": null,
        "cuisine": "Not Specified",
        "latitude": 27.7704633,
        "longitude": -82.6468476,
        "website": null
    },
    {
        "name": "Room 901",
        "type": "bar",
        "cuisine": "Not Specified",
        "latitude": 27.7704657,
        "longitude": -82.6470527,
        "website": null
    },
    {
        "name": "Squeeze Juice Works",
        "type": "cafe",
        "cuisine": "juice;coffee;beer;wine",
        "latitude": 27.7704859,
        "longitude": -82.6629179,
        "website": null
    },
    {
        "name": "Dr. BBQ",
        "type": "restaurant",
        "cuisine": "barbecue;american",
        "latitude": 27.7705061,
        "longitude": -82.6500822,
        "website": null
    },
    {
        "name": "Sunshine Kitty Catfe",
        "type": "cafe",
        "cuisine": "Not Specified",
        "latitude": 27.7705507,
        "longitude": -82.6561229,
        "website": "https://www.sunshinekittycatfe.com/"
    },
    {
        "name": "Lucky Star Lounge",
        "type": "bar",
        "cuisine": "Not Specified",
        "latitude": 27.7706885,
        "longitude": -82.6710714,
        "website": null
    },
    {
        "name": "Bandit Coffee",
        "type": "cafe",
        "cuisine": "coffee_shop",
        "latitude": 27.7707435,
        "longitude": -82.6695312,
        "website": "https://banditcoffee.co/"
    },
    {
        "name": "Trophy Fish",
        "type": "restaurant",
        "cuisine": "fish",
        "latitude": 27.770756,
        "longitude": -82.6614333,
        "website": null
    },
    {
        "name": "The Studio Public House",
        "type": "restaurant",
        "cuisine": "sandwich",
        "latitude": 27.7707567,
        "longitude": -82.6736059,
        "website": null
    },
    {
        "name": "Wild Child",
        "type": "restaurant",
        "cuisine": "american",
        "latitude": 27.7707934,
        "longitude": -82.6703712,
        "website": null
    },
    {
        "name": "Ferg's Sports Bar & Grill",
        "type": "pub",
        "cuisine": "Not Specified",
        "latitude": 27.770797,
        "longitude": -82.6523852,
        "website": "https://www.fergssportsbar.com/"
    },
    {
        "name": "Nitally's",
        "type": "restaurant",
        "cuisine": "thai",
        "latitude": 27.7708133,
        "longitude": -82.666993,
        "website": null
    },
    {
        "name": "Mayster's Cafe",
        "type": "cafe",
        "cuisine": "american",
        "latitude": 27.770824,
        "longitude": -82.666644,
        "website": null
    },
    {
        "name": "The Floribbean",
        "type": "restaurant",
        "cuisine": "Not Specified",
        "latitude": 27.7708436,
        "longitude": -82.6660631,
        "website": "https://thefloribbean.com/"
    },
    {
        "name": "Lost and Found",
        "type": "bar",
        "cuisine": "Not Specified",
        "latitude": 27.7708489,
        "longitude": -82.6662753,
        "website": null
    },
    {
        "name": "DrunkenWok",
        "type": "fast_food",
        "cuisine": "thai",
        "latitude": 27.7708538,
        "longitude": -82.6519763,
        "website": "https://www.drunkenwok.com/"
    },
    {
        "name": "Right Around the Corner",
        "type": "pub",
        "cuisine": "Not Specified",
        "latitude": 27.770854,
        "longitude": -82.663946,
        "website": "https://stpetearcadebar.square.site"
    },
    {
        "name": "McAuley's Pub",
        "type": "pub",
        "cuisine": "Not Specified",
        "latitude": 27.770863,
        "longitude": -82.653933,
        "website": "http://mcauleyspub.com/"
    },
    {
        "name": "Bodega",
        "type": "restaurant",
        "cuisine": "Not Specified",
        "latitude": 27.7708686,
        "longitude": -82.6508381,
        "website": null
    },
    {
        "name": "The Burg Bar & Grill",
        "type": "bar",
        "cuisine": "Not Specified",
        "latitude": 27.7708689,
        "longitude": -82.6574102,
        "website": "https://theburgbar.com/"
    },
    {
        "name": "The Burg Bar & Grill",
        "type": "restaurant",
        "cuisine": "burger",
        "latitude": 27.770885,
        "longitude": -82.657421,
        "website": "https://theburgbar.com"
    },
    {
        "name": "Rose’s",
        "type": "cafe",
        "cuisine": "coffee_shop",
        "latitude": 27.77089,
        "longitude": -82.6513829,
        "website": null
    },
    {
        "name": "The Neon Lunchbox",
        "type": "restaurant",
        "cuisine": "Not Specified",
        "latitude": 27.7708983,
        "longitude": -82.6575731,
        "website": "https://www.theneonlunchboxstpete.com/"
    },
    {
        "name": "Emerald Bar",
        "type": "bar",
        "cuisine": "Not Specified",
        "latitude": 27.7709047,
        "longitude": -82.6411739,
        "website": null
    },
    {
        "name": "Bar@548",
        "type": "bar",
        "cuisine": "Not Specified",
        "latitude": 27.770905,
        "longitude": -82.6411097,
        "website": null
    },
    {
        "name": "Cycle Brewing",
        "type": "bar",
        "cuisine": "Not Specified",
        "latitude": 27.7709055,
        "longitude": -82.6409221,
        "website": null
    },
    {
        "name": "Central Coffee Shoppe",
        "type": "cafe",
        "cuisine": "coffee_shop",
        "latitude": 27.7709061,
        "longitude": -82.6408528,
        "website": null
    },
    {
        "name": "Leafy Greens Cafe",
        "type": "restaurant",
        "cuisine": "salad",
        "latitude": 27.7709383,
        "longitude": -82.655505,
        "website": "http://www.dev.leafygreenscafe.com/"
    },
    {
        "name": "Zaytoon Grill",
        "type": "restaurant",
        "cuisine": "greek",
        "latitude": 27.7709417,
        "longitude": -82.6553243,
        "website": null
    },
    {
        "name": "Driftwood Roastery",
        "type": "cafe",
        "cuisine": "Not Specified",
        "latitude": 27.7709444,
        "longitude": -82.6443652,
        "website": null
    },
    {
        "name": "Chiang Mai",
        "type": "restaurant",
        "cuisine": "thai",
        "latitude": 27.770948,
        "longitude": -82.649977,
        "website": null
    },
    {
        "name": "Enigma",
        "type": "bar",
        "cuisine": "Not Specified",
        "latitude": 27.7709614,
        "longitude": -82.6502257,
        "website": null
    },
    {
        "name": "Patanegra",
        "type": "restaurant",
        "cuisine": "tapas",
        "latitude": 27.7709737,
        "longitude": -82.635792,
        "website": null
    },
    {
        "name": "The Mill",
        "type": "restaurant",
        "cuisine": "Not Specified",
        "latitude": 27.770997,
        "longitude": -82.636474,
        "website": null
    },
    {
        "name": "Maple Street Biscuit Company",
        "type": "restaurant",
        "cuisine": "breakfast",
        "latitude": 27.7709977,
        "longitude": -82.6429421,
        "website": null
    },
    {
        "name": "Datz Saint Pete",
        "type": "restaurant",
        "cuisine": "Not Specified",
        "latitude": 27.7709981,
        "longitude": -82.635281,
        "website": null
    },
    {
        "name": "Pacific Counter",
        "type": "restaurant",
        "cuisine": "sushi",
        "latitude": 27.7709983,
        "longitude": -82.6428325,
        "website": "https://pacificcounter.com/"
    },
    {
        "name": "Fubar Downtown",
        "type": "bar",
        "cuisine": "Not Specified",
        "latitude": 27.7709986,
        "longitude": -82.6427669,
        "website": "https://www.facebook.com/FubarDowntown"
    },
    {
        "name": "Bar Moxy",
        "type": "bar",
        "cuisine": "Not Specified",
        "latitude": 27.7710019,
        "longitude": -82.6513643,
        "website": null
    },
    {
        "name": "Sparrow",
        "type": "restaurant",
        "cuisine": "Not Specified",
        "latitude": 27.771002,
        "longitude": -82.6512508,
        "website": null
    },
    {
        "name": "The Lemon Grass",
        "type": "restaurant",
        "cuisine": "asian",
        "latitude": 27.77101,
        "longitude": -82.637495,
        "website": "https://www.lemongrasstapas.com/"
    },
    {
        "name": "Mickey's Cafe",
        "type": "restaurant",
        "cuisine": "Not Specified",
        "latitude": 27.7710132,
        "longitude": -82.6377614,
        "website": "https://mickeyscafeandorganics.com/"
    },
    {
        "name": "Craft Kafé DTSP",
        "type": "cafe",
        "cuisine": "Not Specified",
        "latitude": 27.771054,
        "longitude": -82.6357411,
        "website": null
    },
    {
        "name": "Twisted Indian",
        "type": "restaurant",
        "cuisine": "indian;regional",
        "latitude": 27.7711766,
        "longitude": -82.6694258,
        "website": "https://thetwistedindian.com"
    },
    {
        "name": "Taphouse 61",
        "type": "bar",
        "cuisine": "Not Specified",
        "latitude": 27.7712395,
        "longitude": -82.6614454,
        "website": null
    },
    {
        "name": "Fire Water",
        "type": "restaurant",
        "cuisine": "fish",
        "latitude": 27.7712421,
        "longitude": -82.6613222,
        "website": "https://lovefoodcentral.com/"
    },
    {
        "name": "The Garage On Central",
        "type": "bar",
        "cuisine": "Not Specified",
        "latitude": 27.7712444,
        "longitude": -82.6705125,
        "website": null
    },
    {
        "name": "Casita Taqueria",
        "type": "restaurant",
        "cuisine": "mexican",
        "latitude": 27.7712496,
        "longitude": -82.6696999,
        "website": null
    },
    {
        "name": "Punky's Bar and Grill",
        "type": "restaurant",
        "cuisine": "grill",
        "latitude": 27.7712552,
        "longitude": -82.6746846,
        "website": "https://punkysbar.com/"
    },
    {
        "name": "Swingers Patio Bar & Grill",
        "type": "restaurant",
        "cuisine": "gastronomic",
        "latitude": 27.771273,
        "longitude": -82.6674482,
        "website": "https://www.thequeensheadbar.com/"
    },
    {
        "name": "Brooklyn South",
        "type": "restaurant",
        "cuisine": "sandwich",
        "latitude": 27.7712825,
        "longitude": -82.653952,
        "website": null
    },
    {
        "name": "Café Tuk Tuk",
        "type": "cafe",
        "cuisine": "coffee_shop",
        "latitude": 27.7713011,
        "longitude": -82.6341708,
        "website": "https://cafetuktuk.us"
    },
    {
        "name": "Steve's Tavern",
        "type": "bar",
        "cuisine": "Not Specified",
        "latitude": 27.7713044,
        "longitude": -82.6476253,
        "website": null
    },
    {
        "name": "Baba",
        "type": null,
        "cuisine": "Not Specified",
        "latitude": 27.7713067,
        "longitude": -82.6701193,
        "website": null
    },
    {
        "name": "Pinoy Saint Pete",
        "type": "restaurant",
        "cuisine": "filipino",
        "latitude": 27.7713103,
        "longitude": -82.6504769,
        "website": "https://www.pinoystpete.com/"
    },
    {
        "name": "Baba",
        "type": "restaurant",
        "cuisine": "lebanese",
        "latitude": 27.7713106,
        "longitude": -82.6701619,
        "website": null
    },
    {
        "name": "Pizza Box",
        "type": "fast_food",
        "cuisine": "Not Specified",
        "latitude": 27.7713109,
        "longitude": -82.6474471,
        "website": null
    },
    {
        "name": "Cocktail St Pete",
        "type": "bar",
        "cuisine": "Not Specified",
        "latitude": 27.7713154,
        "longitude": -82.6655392,
        "website": null
    },
    {
        "name": "Nash's Hot Chicken",
        "type": "restaurant",
        "cuisine": "chicken",
        "latitude": 27.77132,
        "longitude": -82.646986,
        "website": null
    },
    {
        "name": "Buya",
        "type": "restaurant",
        "cuisine": "japanese",
        "latitude": 27.7713203,
        "longitude": -82.6471859,
        "website": null
    },
    {
        "name": "Hawkers Asian Street Food",
        "type": "restaurant",
        "cuisine": "asian",
        "latitude": 27.7713368,
        "longitude": -82.6515023,
        "website": null
    },
    {
        "name": "Karma",
        "type": "cafe",
        "cuisine": "Not Specified",
        "latitude": 27.7713377,
        "longitude": -82.6504646,
        "website": "https://www.karmaeatery.com/"
    },
    {
        "name": "Grassroots Kava",
        "type": "cafe",
        "cuisine": "Not Specified",
        "latitude": 27.771338,
        "longitude": -82.6480824,
        "website": "https://grassrootskavahouse.com/grassroots-kava-house-locations/grassroots-kava-house-st-petersburg/"
    },
    {
        "name": "Poppo's Taquiera",
        "type": "restaurant",
        "cuisine": "tex-mex",
        "latitude": 27.7713417,
        "longitude": -82.6490488,
        "website": "https://www.poppostaqueria.com/"
    },
    {
        "name": "Bavaro's",
        "type": "restaurant",
        "cuisine": "pizza",
        "latitude": 27.7713421,
        "longitude": -82.6478812,
        "website": null
    },
    {
        "name": "Cecelia's Sweets",
        "type": "ice_cream",
        "cuisine": "Not Specified",
        "latitude": 27.7713425,
        "longitude": -82.6491957,
        "website": "https://www.ceceliassweets.com/"
    },
    {
        "name": "Intermezzo Coffee & Cocktails",
        "type": "cafe",
        "cuisine": "american",
        "latitude": 27.7713441,
        "longitude": -82.6503707,
        "website": null
    },
    {
        "name": "Independent",
        "type": "bar",
        "cuisine": "Not Specified",
        "latitude": 27.7713461,
        "longitude": -82.649457,
        "website": null
    },
    {
        "name": "COPA",
        "type": "restaurant",
        "cuisine": "caribbean",
        "latitude": 27.7713461,
        "longitude": -82.6493739,
        "website": "https://www.copadtsp.com/"
    },
    {
        "name": "Doormet",
        "type": "restaurant",
        "cuisine": "Not Specified",
        "latitude": 27.7713521,
        "longitude": -82.6431393,
        "website": "https://www.doormet.com/"
    },
    {
        "name": "Hyppo",
        "type": "ice_cream",
        "cuisine": "Not Specified",
        "latitude": 27.7713533,
        "longitude": -82.6422876,
        "website": null
    },
    {
        "name": "The Lure Ono",
        "type": "restaurant",
        "cuisine": "Not Specified",
        "latitude": 27.771355,
        "longitude": -82.6432371,
        "website": null
    },
    {
        "name": "Engine Rose",
        "type": "restaurant",
        "cuisine": "Not Specified",
        "latitude": 27.7713553,
        "longitude": -82.6729903,
        "website": null
    },
    {
        "name": "9 Bangkok Thai Restaurant",
        "type": "restaurant",
        "cuisine": "thai",
        "latitude": 27.7713577,
        "longitude": -82.6414109,
        "website": "https://9bangkok.menufy.com/"
    },
    {
        "name": "Tony's Pizza",
        "type": "restaurant",
        "cuisine": "pizza",
        "latitude": 27.7713612,
        "longitude": -82.6408746,
        "website": null
    },
    {
        "name": "German Knoodle",
        "type": "restaurant",
        "cuisine": "german",
        "latitude": 27.7713628,
        "longitude": -82.647974,
        "website": null
    },
    {
        "name": "City's Bistro",
        "type": "restaurant",
        "cuisine": "Not Specified",
        "latitude": 27.771363,
        "longitude": -82.643714,
        "website": null
    },
    {
        "name": "Urban",
        "type": "restaurant",
        "cuisine": "barbecue",
        "latitude": 27.7713652,
        "longitude": -82.6688326,
        "website": null
    },
    {
        "name": "La V Vietnamese Fusion",
        "type": "restaurant",
        "cuisine": "vietnamese",
        "latitude": 27.771371,
        "longitude": -82.6393732,
        "website": "https://lavfusion.com/"
    },
    {
        "name": "Pin Wok & Bowl",
        "type": "restaurant",
        "cuisine": "japanese;thai",
        "latitude": 27.7713736,
        "longitude": -82.6394129,
        "website": "https://pinwokandbowl.com/"
    },
    {
        "name": "Lonni's Sandwiches",
        "type": "restaurant",
        "cuisine": "sandwich",
        "latitude": 27.771378,
        "longitude": -82.6390956,
        "website": null
    },
    {
        "name": "Brick & Mortar",
        "type": "restaurant",
        "cuisine": "Not Specified",
        "latitude": 27.7713803,
        "longitude": -82.6410497,
        "website": null
    },
    {
        "name": "Banyan Cafe",
        "type": "cafe",
        "cuisine": "coffee;breakfast;sandwich",
        "latitude": 27.771382,
        "longitude": -82.644085,
        "website": null
    },
    {
        "name": "Five Bucks Drinkery",
        "type": "bar",
        "cuisine": "Not Specified",
        "latitude": 27.771384,
        "longitude": -82.636368,
        "website": null
    },
    {
        "name": "Cider Press Cafe",
        "type": "restaurant",
        "cuisine": "Not Specified",
        "latitude": 27.7713849,
        "longitude": -82.6419478,
        "website": "http://ciderpresscafe.com/"
    },
    {
        "name": "Banana Hammock",
        "type": "bar",
        "cuisine": "seafood",
        "latitude": 27.771388,
        "longitude": -82.636455,
        "website": null
    },
    {
        "name": "Saigon Blonde",
        "type": "bar",
        "cuisine": "Not Specified",
        "latitude": 27.771389,
        "longitude": -82.6367474,
        "website": null
    },
    {
        "name": "Gelato, Gelato!",
        "type": "ice_cream",
        "cuisine": "ice_cream",
        "latitude": 27.771389,
        "longitude": -82.6365938,
        "website": null
    },
    {
        "name": "Mastry's",
        "type": "bar",
        "cuisine": "Not Specified",
        "latitude": 27.7713897,
        "longitude": -82.636181,
        "website": null
    },
    {
        "name": "Mandarin Hide",
        "type": "bar",
        "cuisine": "Not Specified",
        "latitude": 27.771391,
        "longitude": -82.636117,
        "website": null
    },
    {
        "name": "Oak and Stone",
        "type": "restaurant",
        "cuisine": "pizza",
        "latitude": 27.7714042,
        "longitude": -82.635283,
        "website": null
    },
    {
        "name": "Trailer Daddy",
        "type": "bar",
        "cuisine": "Not Specified",
        "latitude": 27.7714085,
        "longitude": -82.6358526,
        "website": "https://www.mytrailerdaddy.com/"
    },
    {
        "name": "Ceviche",
        "type": "restaurant",
        "cuisine": "spanish",
        "latitude": 27.77142,
        "longitude": -82.633518,
        "website": "https://ceviche.com/"
    },
    {
        "name": "Acropolis Greek Taverna",
        "type": "restaurant",
        "cuisine": "greek",
        "latitude": 27.7714607,
        "longitude": -82.6406445,
        "website": "https://www.acropolistaverna.com/"
    },
    {
        "name": "Il Ritorno",
        "type": "restaurant",
        "cuisine": "italian",
        "latitude": 27.7714624,
        "longitude": -82.6395992,
        "website": null
    },
    {
        "name": "Pipo's ToGo",
        "type": "restaurant",
        "cuisine": "cuban",
        "latitude": 27.7714688,
        "longitude": -82.6386784,
        "website": null
    },
    {
        "name": "Ruby's Elixir",
        "type": "bar",
        "cuisine": "Not Specified",
        "latitude": 27.771554,
        "longitude": -82.6369031,
        "website": null
    },
    {
        "name": "Ringside Cafe",
        "type": "bar",
        "cuisine": "Not Specified",
        "latitude": 27.771578,
        "longitude": -82.635726,
        "website": "https://www.facebook.com/Ringsidedowntown/"
    },
    {
        "name": "Cappys Pizza",
        "type": "restaurant",
        "cuisine": "pizza",
        "latitude": 27.7715952,
        "longitude": -82.6727986,
        "website": "http://cappyspizzaonline.com/Locations.aspx"
    },
    {
        "name": "Red Mesa Mercado",
        "type": "restaurant",
        "cuisine": "mexican",
        "latitude": 27.7717063,
        "longitude": -82.6500452,
        "website": "https://redmesamercado.com/"
    },
    {
        "name": "Burrito Boarder",
        "type": "restaurant",
        "cuisine": "mexican",
        "latitude": 27.7717164,
        "longitude": -82.6369125,
        "website": null
    },
    {
        "name": "The Galley",
        "type": "restaurant",
        "cuisine": "Not Specified",
        "latitude": 27.7717256,
        "longitude": -82.6382772,
        "website": "https://thegalleystpete.com/"
    },
    {
        "name": "Webb's City Cellar",
        "type": "pub",
        "cuisine": "Not Specified",
        "latitude": 27.7717522,
        "longitude": -82.6503411,
        "website": "https://www.greenbenchbrewing.com/webbs-city-cellar"
    },
    {
        "name": "The Galley - A St. Pete Tavern",
        "type": "pub",
        "cuisine": "american;burger;caribbean;chicken;fish;fish_and_chips",
        "latitude": 27.7717976,
        "longitude": -82.6369166,
        "website": "https://thegalleystpete.com/"
    },
    {
        "name": "Engine No 9",
        "type": "restaurant",
        "cuisine": "burger",
        "latitude": 27.7718257,
        "longitude": -82.6468726,
        "website": "https://www.no9burgers.com/"
    },
    {
        "name": "Angelo's Grill & Bar",
        "type": "restaurant",
        "cuisine": "pizza",
        "latitude": 27.7718964,
        "longitude": -82.6408961,
        "website": "http://www.stpeteza.com/"
    },
    {
        "name": "MacDinton's Irish Pub",
        "type": "pub",
        "cuisine": "Not Specified",
        "latitude": 27.771899,
        "longitude": -82.6363814,
        "website": null
    },
    {
        "name": "Hi 5",
        "type": "bar",
        "cuisine": "Not Specified",
        "latitude": 27.7719014,
        "longitude": -82.6366239,
        "website": "https://www.hi5stpete.com/"
    },
    {
        "name": "Sushi Inc.",
        "type": "restaurant",
        "cuisine": "sushi",
        "latitude": 27.7719076,
        "longitude": -82.63684,
        "website": null
    },
    {
        "name": "Krispy Krunchy Chicken",
        "type": "fast_food",
        "cuisine": "chicken",
        "latitude": 27.771911,
        "longitude": -82.6383,
        "website": null
    },
    {
        "name": "The Kitchen",
        "type": "restaurant",
        "cuisine": "american",
        "latitude": 27.7719138,
        "longitude": -82.636221,
        "website": null
    },
    {
        "name": "Joey Brooklyn's Famous Pizza",
        "type": "restaurant",
        "cuisine": "pizza",
        "latitude": 27.771919,
        "longitude": -82.635917,
        "website": null
    },
    {
        "name": "Maxiland Bakery",
        "type": "cafe",
        "cuisine": "Not Specified",
        "latitude": 27.7722017,
        "longitude": -82.6499556,
        "website": "http://www.maxilandbakery.com/"
    },
    {
        "name": "Cafe 1001 and Creative Catering Company",
        "type": "cafe",
        "cuisine": "american",
        "latitude": 27.772211,
        "longitude": -82.648283,
        "website": "http://www.creativecateringcompany.com/?page_id=8"
    },
    {
        "name": "Thirsty First",
        "type": "bar",
        "cuisine": "Not Specified",
        "latitude": 27.7722773,
        "longitude": -82.634439,
        "website": null
    },
    {
        "name": "The Bends",
        "type": "bar",
        "cuisine": "Not Specified",
        "latitude": 27.772287,
        "longitude": -82.6474044,
        "website": "https://www.facebook.com/thebendsbar"
    },
    {
        "name": "Starbucks",
        "type": "cafe",
        "cuisine": "coffee_shop",
        "latitude": 27.772293,
        "longitude": -82.63531,
        "website": "https://www.starbucks.com/store-locator/store/8941/baywalk-199-1st-ave-north-st-petersburg-fl-337013301-us"
    },
    {
        "name": "Copper Shaker",
        "type": "bar",
        "cuisine": "Not Specified",
        "latitude": 27.772299,
        "longitude": -82.6349436,
        "website": "https://www.coppershaker.com/"
    },
    {
        "name": "One Night Stand",
        "type": "bar",
        "cuisine": "Not Specified",
        "latitude": 27.7723009,
        "longitude": -82.6348209,
        "website": null
    },
    {
        "name": "Mio's Grill and Cafe",
        "type": "restaurant",
        "cuisine": "Not Specified",
        "latitude": 27.7724173,
        "longitude": -82.6353379,
        "website": null
    },
    {
        "name": "Fo'Cheezy",
        "type": "restaurant",
        "cuisine": "american",
        "latitude": 27.7724834,
        "longitude": -82.6368433,
        "website": "https://www.focheezy.com"
    },
    {
        "name": "Nature's Table",
        "type": "restaurant",
        "cuisine": "mediterranean",
        "latitude": 27.7726383,
        "longitude": -82.6368753,
        "website": null
    },
    {
        "name": "Doc Ford's Rum Bar & Grille",
        "type": "restaurant",
        "cuisine": "Not Specified",
        "latitude": 27.7728617,
        "longitude": -82.6262177,
        "website": null
    },
    {
        "name": "Fresco's Waterfront Bistro",
        "type": "restaurant",
        "cuisine": "seafood",
        "latitude": 27.7732364,
        "longitude": -82.6314363,
        "website": null
    },
    {
        "name": "Cassis American Brasserie",
        "type": "restaurant",
        "cuisine": "french",
        "latitude": 27.773313,
        "longitude": -82.633105,
        "website": "http://cassisab.com/"
    },
    {
        "name": "The Wooden Rooster",
        "type": "restaurant",
        "cuisine": "crepe;sandwich;salad;soup;coffee;beer;wine",
        "latitude": 27.7733541,
        "longitude": -82.6335353,
        "website": "https://thewoodenrooster.com/"
    },
    {
        "name": "Bella Brava",
        "type": "restaurant",
        "cuisine": "italian",
        "latitude": 27.7737,
        "longitude": -82.632919,
        "website": "https://bellabrava.com/"
    },
    {
        "name": "ParaDeco Coffee Roasters",
        "type": "cafe",
        "cuisine": "coffee_shop",
        "latitude": 27.7737062,
        "longitude": -82.6335621,
        "website": null
    },
    {
        "name": "Pier Teaki",
        "type": "bar",
        "cuisine": "Not Specified",
        "latitude": 27.7737144,
        "longitude": -82.6225142,
        "website": null
    },
    {
        "name": "Driftwood Cafe",
        "type": "restaurant",
        "cuisine": "Not Specified",
        "latitude": 27.7737246,
        "longitude": -82.6225501,
        "website": null
    },
    {
        "name": "La Sandwicherie Saint Pete",
        "type": "restaurant",
        "cuisine": "french",
        "latitude": 27.773752,
        "longitude": -82.633819,
        "website": "www.lasandwicheriestpete.com"
    },
    {
        "name": "Sab Cafe",
        "type": "restaurant",
        "cuisine": "vietnamese",
        "latitude": 27.77376,
        "longitude": -82.633667,
        "website": "Sabcafe.com"
    },
    {
        "name": "Hops & Props",
        "type": "bar",
        "cuisine": "Not Specified",
        "latitude": 27.7737979,
        "longitude": -82.6307553,
        "website": null
    },
    {
        "name": "Driftwood Cafe",
        "type": "cafe",
        "cuisine": "Not Specified",
        "latitude": 27.7738211,
        "longitude": -82.6225596,
        "website": null
    },
    {
        "name": "The Witches BBQ Den",
        "type": "restaurant",
        "cuisine": "barbecue",
        "latitude": 27.77383,
        "longitude": -82.633408,
        "website": null
    },
    {
        "name": "Sea Salt",
        "type": "bar",
        "cuisine": "Not Specified",
        "latitude": 27.7738373,
        "longitude": -82.6352157,
        "website": null
    },
    {
        "name": "Ruth's Chris Steak House",
        "type": "restaurant",
        "cuisine": "american;steak_house",
        "latitude": 27.7738716,
        "longitude": -82.6343209,
        "website": null
    },
    {
        "name": "The Ale and the Witch",
        "type": "pub",
        "cuisine": "Not Specified",
        "latitude": 27.773918,
        "longitude": -82.633613,
        "website": null
    },
    {
        "name": "Sushi Sho Rexley",
        "type": "restaurant",
        "cuisine": "japanese;sushi",
        "latitude": 27.7740158,
        "longitude": -82.6357569,
        "website": "https://rexleysushi.com/"
    },
    {
        "name": "Spa Beach Bistro",
        "type": "fast_food",
        "cuisine": "pizza",
        "latitude": 27.7740396,
        "longitude": -82.6274162,
        "website": null
    },
    {
        "name": "Wine Madonna",
        "type": "bar",
        "cuisine": "Not Specified",
        "latitude": 27.7740601,
        "longitude": -82.6336326,
        "website": null
    },
    {
        "name": "Stillwaters Tavern",
        "type": "restaurant",
        "cuisine": "seafood",
        "latitude": 27.774162,
        "longitude": -82.632808,
        "website": null
    },
    {
        "name": "Rollbotto Sushi",
        "type": "restaurant",
        "cuisine": "sushi",
        "latitude": 27.774164,
        "longitude": -82.633816,
        "website": null
    },
    {
        "name": "Georgie's Alibi",
        "type": "bar",
        "cuisine": "Not Specified",
        "latitude": 27.774322,
        "longitude": -82.675717,
        "website": null
    },
    {
        "name": "Coney Island Grill",
        "type": "restaurant",
        "cuisine": "hot_dog",
        "latitude": 27.7743745,
        "longitude": -82.6469795,
        "website": null
    },
    {
        "name": "Tryst",
        "type": "pub",
        "cuisine": "american",
        "latitude": 27.774512,
        "longitude": -82.632695,
        "website": null
    },
    {
        "name": "Parkshore Grill",
        "type": "restaurant",
        "cuisine": "american",
        "latitude": 27.7751972,
        "longitude": -82.6324662,
        "website": "https://www.parkshoregrill.com/"
    },
    {
        "name": "Paciugo Gelato & Caffè",
        "type": "ice_cream",
        "cuisine": "ice_cream",
        "latitude": 27.77548,
        "longitude": -82.632271,
        "website": null
    },
    {
        "name": "Allelo",
        "type": "restaurant",
        "cuisine": "mediterranean;wine",
        "latitude": 27.7754988,
        "longitude": -82.6323683,
        "website": "https://www.allelostpete.com/"
    },
    {
        "name": "The Moon Under Water",
        "type": "restaurant",
        "cuisine": "indian",
        "latitude": 27.775843,
        "longitude": -82.632037,
        "website": "https://www.themoonunderwater.com/"
    },
    {
        "name": "Apollo's Bistro",
        "type": "restaurant",
        "cuisine": "american",
        "latitude": 27.7759193,
        "longitude": -82.4040977,
        "website": "https://www.apollosbistro.com/"
    },
    {
        "name": "Cactus Charlie's Lounge",
        "type": "bar",
        "cuisine": "Not Specified",
        "latitude": 27.7759293,
        "longitude": -82.6796588,
        "website": null
    },
    {
        "name": "The Canopy at Birchwood",
        "type": "bar",
        "cuisine": "Not Specified",
        "latitude": 27.776045,
        "longitude": -82.632129,
        "website": null
    },
    {
        "name": "Common Grounds",
        "type": "cafe",
        "cuisine": "Not Specified",
        "latitude": 27.7765517,
        "longitude": -82.6387069,
        "website": null
    },
    {
        "name": "The Tap Room",
        "type": "restaurant",
        "cuisine": "american",
        "latitude": 27.7765758,
        "longitude": -82.638798,
        "website": null
    },
    {
        "name": "400 Beach Seafood",
        "type": "restaurant",
        "cuisine": "seafood",
        "latitude": 27.777371,
        "longitude": -82.631548,
        "website": "https://www.400beachseafood.com/"
    },
    {
        "name": "Kahwa Coffee North",
        "type": "cafe",
        "cuisine": "coffee_shop",
        "latitude": 27.7774162,
        "longitude": -82.6353661,
        "website": null
    },
    {
        "name": "Taco Bell",
        "type": "fast_food",
        "cuisine": "tex-mex",
        "latitude": 27.7775869,
        "longitude": -82.6798827,
        "website": "https://locations.tacobell.com/fl/saint-petersburg/3401-5th-avenue-n.html"
    },
    {
        "name": "Subway",
        "type": "fast_food",
        "cuisine": "sandwich",
        "latitude": 27.7776175,
        "longitude": -82.6790793,
        "website": "https://restaurants.subway.com/united-states/fl/st-petersburg/3355-5th-avenue-north"
    },
    {
        "name": "SouZou",
        "type": "restaurant",
        "cuisine": "asian",
        "latitude": 27.7777508,
        "longitude": -82.6393196,
        "website": null
    },
    {
        "name": "Arby's",
        "type": "fast_food",
        "cuisine": "sandwich",
        "latitude": 27.7778798,
        "longitude": -82.679028,
        "website": "https://www.arbys.com/locations/us/fl/st--petersburg/571-34th-st-n/store-47/"
    },
    {
        "name": "Elliott Aster",
        "type": "restaurant",
        "cuisine": "new_american;italian",
        "latitude": 27.7779224,
        "longitude": -82.6296697,
        "website": "https://www.elliottaster.com/"
    },
    {
        "name": "GypsySouls Coffeehouse DTSP",
        "type": "cafe",
        "cuisine": "coffee_shop",
        "latitude": 27.7779384,
        "longitude": -82.6464579,
        "website": "https://www.gypsysoulscoffeehouse.com/"
    },
    {
        "name": "Popeyes",
        "type": "fast_food",
        "cuisine": "chicken",
        "latitude": 27.778515,
        "longitude": -82.6798055,
        "website": "https://www.popeyes.com/store-locator/store/restaurant_86645"
    },
    {
        "name": "Fray's Donut House",
        "type": "fast_food",
        "cuisine": "coffee_shop;donut",
        "latitude": 27.7788111,
        "longitude": -82.6790138,
        "website": "https://www.fraysdonuthouse.com"
    },
    {
        "name": "Banyan Cafe and Catering",
        "type": "cafe",
        "cuisine": "Not Specified",
        "latitude": 27.7790325,
        "longitude": -82.646504,
        "website": null
    },
    {
        "name": "City Perks",
        "type": "cafe",
        "cuisine": "Not Specified",
        "latitude": 27.7792334,
        "longitude": -82.6448037,
        "website": null
    },
    {
        "name": "Dunkin'",
        "type": "fast_food",
        "cuisine": "donut;coffee_shop",
        "latitude": 27.7793685,
        "longitude": -82.6798307,
        "website": null
    },
    {
        "name": "Old Northeast Tavern",
        "type": "pub",
        "cuisine": "Not Specified",
        "latitude": 27.7795714,
        "longitude": -82.6357384,
        "website": null
    },
    {
        "name": "KFC",
        "type": "fast_food",
        "cuisine": "chicken",
        "latitude": 27.7796885,
        "longitude": -82.6798392,
        "website": "https://locations.kfc.com/fl/saint-petersburg/770-34th-street-n"
    },
    {
        "name": "Old Northeast Pizza",
        "type": "restaurant",
        "cuisine": "Not Specified",
        "latitude": 27.7797051,
        "longitude": -82.6357348,
        "website": null
    },
    {
        "name": "Black Crow Coffee Shop",
        "type": "cafe",
        "cuisine": "Not Specified",
        "latitude": 27.7797788,
        "longitude": -82.6357335,
        "website": "https://www.blackcrowcoffeeco.com/"
    },
    {
        "name": "Foxtail Coffee",
        "type": "cafe",
        "cuisine": "coffee_shop",
        "latitude": 27.7798145,
        "longitude": -82.6387538,
        "website": "https://foxtailcoffee.com"
    },
    {
        "name": "Jimmy John's",
        "type": "fast_food",
        "cuisine": "sandwich",
        "latitude": 27.7800341,
        "longitude": -82.6387617,
        "website": "https://locations.jimmyjohns.com/fl/st-petersburg/sandwiches-1404.html"
    },
    {
        "name": "Chipotle",
        "type": "fast_food",
        "cuisine": "mexican",
        "latitude": 27.780132,
        "longitude": -82.638763,
        "website": "https://locations.chipotle.com/fl/saint-petersburg/780-4th-st-n"
    },
    {
        "name": "Circles",
        "type": "restaurant",
        "cuisine": "seafood",
        "latitude": 27.780559,
        "longitude": -82.4228404,
        "website": null
    },
    {
        "name": "Salem's Gyros & Subs",
        "type": "fast_food",
        "cuisine": "sandwich",
        "latitude": 27.7805874,
        "longitude": -82.6798538,
        "website": null
    },
    {
        "name": "Starbucks",
        "type": "cafe",
        "cuisine": "coffee_shop",
        "latitude": 27.781352,
        "longitude": -82.63874,
        "website": "https://www.starbucks.com/store-locator/store/9265/4th-st-9th-ave-900-4th-street-north-a-st-petersburg-fl-337011722-"
    },
    {
        "name": "Kissin' Cuzzins",
        "type": "restaurant",
        "cuisine": "Not Specified",
        "latitude": 27.7816063,
        "longitude": -82.6791153,
        "website": null
    },
    {
        "name": "Tijuana Flats",
        "type": "restaurant",
        "cuisine": "mexican",
        "latitude": 27.781676,
        "longitude": -82.638719,
        "website": null
    },
    {
        "name": "Fourth Street Shrimp Store",
        "type": "restaurant",
        "cuisine": "seafood",
        "latitude": 27.7821413,
        "longitude": -82.6387994,
        "website": "https://www.theshrimpstore.com/"
    },
    {
        "name": "McDonald's",
        "type": "fast_food",
        "cuisine": "burger",
        "latitude": 27.7823404,
        "longitude": -82.6799153,
        "website": "https://www.mcdonalds.com/us/en-us/location/24711.html"
    },
    {
        "name": "California Tacos",
        "type": "restaurant",
        "cuisine": "mexican",
        "latitude": 27.782391,
        "longitude": -82.638239,
        "website": null
    },
    {
        "name": "Dunkin'",
        "type": "fast_food",
        "cuisine": "donut;coffee_shop",
        "latitude": 27.7829637,
        "longitude": -82.6387757,
        "website": "https://locations.dunkindonuts.com/en/fl/saint-petersburg/1046-4th-st-n/349055"
    },
    {
        "name": "Little Greek",
        "type": "restaurant",
        "cuisine": "greek",
        "latitude": 27.783135,
        "longitude": -82.638772,
        "website": "https://mylittlegreek.com/"
    },
    {
        "name": "Flippers Pizzeria",
        "type": "restaurant",
        "cuisine": "pizza",
        "latitude": 27.783239,
        "longitude": -82.6387699,
        "website": "https://flipperspizzeria.com/"
    },
    {
        "name": "Grand Hacienda",
        "type": "restaurant",
        "cuisine": "mexican",
        "latitude": 27.7833999,
        "longitude": -82.6382976,
        "website": "https://grandhaciendarestaurant.com/st-petersburg/"
    },
    {
        "name": "Wendy's",
        "type": "fast_food",
        "cuisine": "burger",
        "latitude": 27.7834403,
        "longitude": -82.6789226,
        "website": "https://locations.wendys.com/united-states/fl/saint-petersburg/1115-34th-street-n"
    },
    {
        "name": "Sushi Rock Grill",
        "type": "restaurant",
        "cuisine": "sushi",
        "latitude": 27.7836689,
        "longitude": -82.6464841,
        "website": null
    },
    {
        "name": "Hook's Sushi",
        "type": "restaurant",
        "cuisine": "sushi",
        "latitude": 27.7837636,
        "longitude": -82.6469242,
        "website": null
    },
    {
        "name": "Flamingo Sports Bar",
        "type": "pub",
        "cuisine": "Not Specified",
        "latitude": 27.7839984,
        "longitude": -82.6469715,
        "website": null
    },
    {
        "name": "Dairy Inn",
        "type": "ice_cream",
        "cuisine": "ice_cream",
        "latitude": 27.7840226,
        "longitude": -82.6464993,
        "website": null
    },
    {
        "name": "Tropical Smoothie Cafe",
        "type": "fast_food",
        "cuisine": "juice",
        "latitude": 27.784148,
        "longitude": -82.63831,
        "website": "https://www.tropicalsmoothie.com/"
    },
    {
        "name": "China City",
        "type": "restaurant",
        "cuisine": "chinese",
        "latitude": 27.7846246,
        "longitude": -82.6383547,
        "website": "http://www.chinacitystpete.com/"
    },
    {
        "name": "Mr. Sushi",
        "type": "restaurant",
        "cuisine": "japanese",
        "latitude": 27.7850739,
        "longitude": -82.6801037,
        "website": null
    },
    {
        "name": "Special Pho",
        "type": "restaurant",
        "cuisine": "vietnamese",
        "latitude": 27.7853301,
        "longitude": -82.6801082,
        "website": null
    },
    {
        "name": "Burger Monger",
        "type": "restaurant",
        "cuisine": "burger",
        "latitude": 27.7854495,
        "longitude": -82.6382665,
        "website": "https://www.burgermonger.com/st-petersburg-burgers/"
    },
    {
        "name": "Smoothie King",
        "type": "fast_food",
        "cuisine": "juice",
        "latitude": 27.7855482,
        "longitude": -82.6382665,
        "website": "https://locations.smoothieking.com/ll/US/FL/St_-Petersburg/1335-4th-Street-North"
    },
    {
        "name": "Wingstop",
        "type": "fast_food",
        "cuisine": "wings",
        "latitude": 27.7857061,
        "longitude": -82.6789655,
        "website": null
    },
    {
        "name": "Pizza Hut",
        "type": "restaurant",
        "cuisine": "pizza",
        "latitude": 27.7857606,
        "longitude": -82.6789682,
        "website": "https://locations.pizzahut.com/fl/saint-petersburg/1421-34th-street-north"
    },
    {
        "name": "Culver's",
        "type": "fast_food",
        "cuisine": "burger",
        "latitude": 27.7861355,
        "longitude": -82.6789205,
        "website": "https://www.culvers.com/restaurants/st-petersburg-fl-34th-st"
    },
    {
        "name": "Three Birds Tavern",
        "type": "pub",
        "cuisine": "american",
        "latitude": 27.7866519,
        "longitude": -82.6388319,
        "website": "https://threebirdstavern.com/"
    },
    {
        "name": "Hungry Howie's",
        "type": "fast_food",
        "cuisine": "pizza",
        "latitude": 27.7867275,
        "longitude": -82.6799656,
        "website": null
    },
    {
        "name": "The Landing Club & Café",
        "type": "restaurant",
        "cuisine": "Not Specified",
        "latitude": 27.786947,
        "longitude": -82.375085,
        "website": "https://www.watersetfl.com/lifestyle/amenities/"
    },
    {
        "name": "Jersey Mike's Subs",
        "type": "fast_food",
        "cuisine": "sandwich",
        "latitude": 27.7886672,
        "longitude": -82.6388339,
        "website": "https://www.jerseymikes.com/13153/st-petersburg-fl"
    },
    {
        "name": "Buffalo Wild Wings",
        "type": "restaurant",
        "cuisine": "wings",
        "latitude": 27.7894816,
        "longitude": -82.3337264,
        "website": "https://www.buffalowildwings.com/en/"
    },
    {
        "name": "El Tenampa Mexican restaurant",
        "type": "restaurant",
        "cuisine": "Not Specified",
        "latitude": 27.7894963,
        "longitude": -82.655334,
        "website": null
    },
    {
        "name": "Outback Steakhouse",
        "type": "restaurant",
        "cuisine": "american;steak",
        "latitude": 27.7897595,
        "longitude": -82.6390159,
        "website": "https://www.outback.com/restaurant/locations/FL/St-Petersburg/St-Pete-4th-St/index.aspx"
    },
    {
        "name": "Po Folks",
        "type": "restaurant",
        "cuisine": "american",
        "latitude": 27.7898813,
        "longitude": -82.678814,
        "website": "https://www.pofolks.net/"
    },
    {
        "name": "Panera Bread",
        "type": "fast_food",
        "cuisine": "sandwich;bakery",
        "latitude": 27.78995,
        "longitude": -82.639036,
        "website": "https://locations.panerabread.com/fl/st-petersburg/1908-4th-street-north.html"
    },
    {
        "name": "China 1",
        "type": "restaurant",
        "cuisine": "chinese",
        "latitude": 27.7899884,
        "longitude": -82.6802317,
        "website": null
    },
    {
        "name": "Little Habana Cafe",
        "type": "restaurant",
        "cuisine": "cuban",
        "latitude": 27.7900475,
        "longitude": -82.3427251,
        "website": "https://www.littlehabanacafe.com/"
    },
    {
        "name": "Carrabba's Italian Grill",
        "type": "restaurant",
        "cuisine": "italian",
        "latitude": 27.790228,
        "longitude": -82.638264,
        "website": null
    },
    {
        "name": "DQ Grill & Chill",
        "type": "fast_food",
        "cuisine": "ice_cream;burger",
        "latitude": 27.790357,
        "longitude": -82.3342894,
        "website": "https://www.dairyqueen.com/us-en/"
    },
    {
        "name": "East Coast Pizza",
        "type": "restaurant",
        "cuisine": "pizza;italian",
        "latitude": 27.7904058,
        "longitude": -82.3427304,
        "website": "https://www.EastCoastPizza.com"
    },
    {
        "name": "Panera Bread",
        "type": "fast_food",
        "cuisine": "sandwich;bakery",
        "latitude": 27.790419,
        "longitude": -82.3337764,
        "website": "https://locations.panerabread.com/fl/riverview/10631-big-bend-road.html"
    },
    {
        "name": "Cold Stone Creamery",
        "type": "ice_cream",
        "cuisine": "ice_cream",
        "latitude": 27.790466,
        "longitude": -82.638279,
        "website": null
    },
    {
        "name": "Ichiban Japanese",
        "type": "restaurant",
        "cuisine": "japanese",
        "latitude": 27.7909249,
        "longitude": -82.6553414,
        "website": "https://www.ichibanstpete.com/"
    },
    {
        "name": "Applebee's",
        "type": "restaurant",
        "cuisine": "american",
        "latitude": 27.7910599,
        "longitude": -82.3406499,
        "website": "https://restaurants.applebees.com/en-us/fl/riverview/10243-big-bend-road-75066"
    },
    {
        "name": "Jersey Mike's Subs",
        "type": "fast_food",
        "cuisine": "sandwich",
        "latitude": 27.7910871,
        "longitude": -82.3425992,
        "website": "https://www.jerseymikes.com/13136/riverview-fl"
    },
    {
        "name": "Little greek fresh grill",
        "type": "restaurant",
        "cuisine": "greek",
        "latitude": 27.7910873,
        "longitude": -82.3426444,
        "website": "https://littlegreekfreshgrill.com/store/riverview/"
    },
    {
        "name": "Pizza Hut",
        "type": "restaurant",
        "cuisine": "pizza",
        "latitude": 27.7910876,
        "longitude": -82.342708,
        "website": "https://locations.pizzahut.com/fl/riverview/10171-big-bend-rd"
    },
    {
        "name": "Sonic",
        "type": "fast_food",
        "cuisine": "burger",
        "latitude": 27.7910914,
        "longitude": -82.3401458,
        "website": "https://locations.sonicdrivein.com/fl/riverview/10251-big-bend-road.html"
    },
    {
        "name": "Village Inn",
        "type": "restaurant",
        "cuisine": "american",
        "latitude": 27.7911387,
        "longitude": -82.3394718,
        "website": null
    },
    {
        "name": "Burger King",
        "type": "fast_food",
        "cuisine": "burger",
        "latitude": 27.7913835,
        "longitude": -82.3367961,
        "website": "https://www.bk.com/store-locator/store/restaurant_11059"
    },
    {
        "name": "PDQ",
        "type": "fast_food",
        "cuisine": "Not Specified",
        "latitude": 27.7914131,
        "longitude": -82.3354644,
        "website": "https://www.eatpdq.com/locations/riverview"
    },
    {
        "name": "Chipotle",
        "type": "fast_food",
        "cuisine": "mexican",
        "latitude": 27.7914189,
        "longitude": -82.3372091,
        "website": null
    },
    {
        "name": "Starbucks",
        "type": "cafe",
        "cuisine": "coffee_shop",
        "latitude": 27.7914879,
        "longitude": -82.6798481,
        "website": "https://www.starbucks.com/store-locator/store/1017781/us-19-22nd-ave-2190-34th-st-n-st-petersburg-fl-337133610-us"
    },
    {
        "name": "Dunkin'",
        "type": "fast_food",
        "cuisine": "donut;coffee_shop",
        "latitude": 27.7914997,
        "longitude": -82.6743186,
        "website": "https://locations.dunkindonuts.com/en/fl/saint-petersburg/3000-22nd-ave-n/351848"
    },
    {
        "name": "Starbucks",
        "type": "cafe",
        "cuisine": "coffee_shop",
        "latitude": 27.7915389,
        "longitude": -82.3724501,
        "website": null
    },
    {
        "name": "Popeyes",
        "type": "fast_food",
        "cuisine": "chicken",
        "latitude": 27.791567,
        "longitude": -82.3335074,
        "website": "https://www.popeyes.com/store-locator/store/restaurant_84900"
    },
    {
        "name": "Culver's",
        "type": "fast_food",
        "cuisine": "burger",
        "latitude": 27.7915725,
        "longitude": -82.3308974,
        "website": "https://www.culvers.com/restaurants/riverview-fl-big-bend-rd"
    },
    {
        "name": "Dave's Hot Chicken",
        "type": "fast_food",
        "cuisine": "chicken",
        "latitude": 27.7916064,
        "longitude": -82.3290428,
        "website": null
    },
    {
        "name": "Panda Express",
        "type": "fast_food",
        "cuisine": "chinese",
        "latitude": 27.7916292,
        "longitude": -82.3297398,
        "website": "https://www.pandaexpress.com/locations/fl/riverview/3036"
    },
    {
        "name": "NY NY Pizza",
        "type": "restaurant",
        "cuisine": "pizza",
        "latitude": 27.7916484,
        "longitude": -82.3165008,
        "website": "http://riverview.nynypizzeria.menufy.com/"
    },
    {
        "name": "Chile Verde",
        "type": "fast_food",
        "cuisine": "mexican",
        "latitude": 27.7923371,
        "longitude": -82.6717065,
        "website": null
    },
    {
        "name": "Athenian Garden",
        "type": "restaurant",
        "cuisine": "greek",
        "latitude": 27.792517,
        "longitude": -82.638882,
        "website": "https://atheniangardens.com/locations/4th-street/"
    },
    {
        "name": "Sesh",
        "type": "restaurant",
        "cuisine": "Not Specified",
        "latitude": 27.7925853,
        "longitude": -82.6382024,
        "website": null
    },
    {
        "name": "Starbucks",
        "type": "cafe",
        "cuisine": "coffee_shop",
        "latitude": 27.7926599,
        "longitude": -82.3292751,
        "website": null
    },
    {
        "name": "Glory Days Bar & Grill",
        "type": "fast_food",
        "cuisine": "Not Specified",
        "latitude": 27.7927427,
        "longitude": -82.3405262,
        "website": null
    },
    {
        "name": "Mellow Mushroom",
        "type": "restaurant",
        "cuisine": "pizza",
        "latitude": 27.7927546,
        "longitude": -82.3406643,
        "website": "https://www.mellowmushroom.com/"
    },
    {
        "name": "Sakura Japanese Steakhouse",
        "type": "restaurant",
        "cuisine": "japanese",
        "latitude": 27.7928227,
        "longitude": -82.3308325,
        "website": null
    },
    {
        "name": "McDonald's",
        "type": "fast_food",
        "cuisine": "burger",
        "latitude": 27.7929409,
        "longitude": -82.3723696,
        "website": "https://www.mcdonalds.com/us/en-us/location/39906.html"
    },
    {
        "name": "Dunkin'",
        "type": "fast_food",
        "cuisine": "donut;coffee_shop",
        "latitude": 27.7932144,
        "longitude": -82.3740277,
        "website": "https://locations.dunkindonuts.com/en/fl/gibsonton/6912-big-bend-rd/347625"
    },
    {
        "name": "Anthony's Pizza",
        "type": "restaurant",
        "cuisine": "pizza",
        "latitude": 27.793252,
        "longitude": -82.670984,
        "website": null
    },
    {
        "name": "JWags",
        "type": "bar",
        "cuisine": "Not Specified",
        "latitude": 27.793332,
        "longitude": -82.638728,
        "website": "www.jwagsstpete.com"
    },
    {
        "name": "Qdoba",
        "type": "fast_food",
        "cuisine": "mexican",
        "latitude": 27.7937032,
        "longitude": -82.3354825,
        "website": "https://locations.qdoba.com/us/fl/riverview/13165-us-301.html"
    },
    {
        "name": "Trip's Diner",
        "type": "restaurant",
        "cuisine": "diner",
        "latitude": 27.793731,
        "longitude": -82.646503,
        "website": "https://tripsdiner.com/"
    },
    {
        "name": "Papa John's",
        "type": "fast_food",
        "cuisine": "pizza",
        "latitude": 27.7937796,
        "longitude": -82.6388448,
        "website": "https://locations.papajohns.com/united-states/fl/33704/st-petersburg/2390-4th-street-north"
    },
    {
        "name": "Pita's Republic",
        "type": "restaurant",
        "cuisine": "greek",
        "latitude": 27.7939157,
        "longitude": -82.3358856,
        "website": null
    },
    {
        "name": "Twistee Treat",
        "type": "ice_cream",
        "cuisine": "Not Specified",
        "latitude": 27.7945338,
        "longitude": -82.3333566,
        "website": null
    },
    {
        "name": "Wendy's",
        "type": "fast_food",
        "cuisine": "burger",
        "latitude": 27.7949399,
        "longitude": -82.3354585,
        "website": "https://locations.wendys.com/united-states/fl/riverview/13119-south-us-highway-301"
    },
    {
        "name": "McDonald's",
        "type": "fast_food",
        "cuisine": "burger",
        "latitude": 27.7951535,
        "longitude": -82.3342308,
        "website": "https://www.mcdonalds.com/us/en-us/location/31482.html"
    },
    {
        "name": "Old Farmer's Creamery",
        "type": "ice_cream",
        "cuisine": "ice_cream",
        "latitude": 27.7956233,
        "longitude": -82.6383377,
        "website": null
    },
    {
        "name": "Neighborhood Joe",
        "type": "cafe",
        "cuisine": "coffee;breakfast;sandwich",
        "latitude": 27.7960019,
        "longitude": -82.646533,
        "website": null
    },
    {
        "name": "Jinju",
        "type": "restaurant",
        "cuisine": "korean",
        "latitude": 27.7962111,
        "longitude": -82.6800272,
        "website": null
    },
    {
        "name": "Evos",
        "type": "restaurant",
        "cuisine": "american",
        "latitude": 27.7963888,
        "longitude": -82.6381208,
        "website": null
    },
    {
        "name": "Taco Bell",
        "type": "fast_food",
        "cuisine": "tex-mex",
        "latitude": 27.7964688,
        "longitude": -82.3341492,
        "website": "https://locations.tacobell.com/fl/riverview/13032-us-301-s.html"
    },
    {
        "name": "Pho Mai Asian Kitchen",
        "type": "restaurant",
        "cuisine": "asian",
        "latitude": 27.7967945,
        "longitude": -82.3355141,
        "website": null
    },
    {
        "name": "Outback and Carrabba's Express",
        "type": "restaurant",
        "cuisine": "Not Specified",
        "latitude": 27.7968848,
        "longitude": -82.3355141,
        "website": "https://outbackandcarrabbasexpress.com"
    },
    {
        "name": "Casita Taqueria",
        "type": "restaurant",
        "cuisine": "mexican",
        "latitude": 27.7970109,
        "longitude": -82.638177,
        "website": null
    },
    {
        "name": "Chick-fil-A",
        "type": "fast_food",
        "cuisine": "chicken",
        "latitude": 27.7976455,
        "longitude": -82.3340096,
        "website": "https://www.chick-fil-a.com/locations/fl/riverview-fl"
    },
    {
        "name": "Tijuana Flats",
        "type": "restaurant",
        "cuisine": "mexican",
        "latitude": 27.7977923,
        "longitude": -82.3355086,
        "website": "https://tijuanaflats.com"
    },
    {
        "name": "Texas Roadhouse",
        "type": "restaurant",
        "cuisine": "steak_house",
        "latitude": 27.7985215,
        "longitude": -82.3339148,
        "website": null
    },
    {
        "name": "Astra Pizza",
        "type": "restaurant",
        "cuisine": "pizza",
        "latitude": 27.7987428,
        "longitude": -82.6547886,
        "website": "https://www.astrapizzaonline.com"
    },
    {
        "name": "The Burg Diner",
        "type": "restaurant",
        "cuisine": "cuban",
        "latitude": 27.798953,
        "longitude": -82.700418,
        "website": "https://theburgdiner.com/"
    },
    {
        "name": "Sunset Grille",
        "type": "restaurant",
        "cuisine": "american",
        "latitude": 27.799202,
        "longitude": -82.6470275,
        "website": null
    },
    {
        "name": "IHOP",
        "type": "restaurant",
        "cuisine": "breakfast;pancake",
        "latitude": 27.7992499,
        "longitude": -82.3339701,
        "website": null
    },
    {
        "name": "Yogurtology",
        "type": "ice_cream",
        "cuisine": "Not Specified",
        "latitude": 27.799748,
        "longitude": -82.638257,
        "website": null
    },
    {
        "name": "Yogurtology",
        "type": "ice_cream",
        "cuisine": "yogurt",
        "latitude": 27.799768,
        "longitude": -82.638251,
        "website": null
    },
    {
        "name": "Fitlife Foods",
        "type": "restaurant",
        "cuisine": "healthy;fitmeals;mexican;regional;korean;italian;breakfast;brunch;asian;barbecue",
        "latitude": 27.799823,
        "longitude": -82.638241,
        "website": "https://eatfitlifefoods.com/"
    },
    {
        "name": "Wilson's Sports Lounge",
        "type": "bar",
        "cuisine": "american",
        "latitude": 27.8000802,
        "longitude": -82.638892,
        "website": null
    },
    {
        "name": "Pineapple Espresso",
        "type": "cafe",
        "cuisine": "coffee_shop",
        "latitude": 27.8001396,
        "longitude": -82.6464761,
        "website": null
    },
    {
        "name": "LongHorn Steakhouse",
        "type": "restaurant",
        "cuisine": "steak_house",
        "latitude": 27.8001613,
        "longitude": -82.3341246,
        "website": null
    },
    {
        "name": "Smokin' Restaurant",
        "type": "restaurant",
        "cuisine": "Not Specified",
        "latitude": 27.8004246,
        "longitude": -82.6798357,
        "website": null
    },
    {
        "name": "Harvey's 4th Street Grill",
        "type": "restaurant",
        "cuisine": "american",
        "latitude": 27.800492,
        "longitude": -82.637711,
        "website": null
    },
    {
        "name": "Subway",
        "type": "fast_food",
        "cuisine": "sandwich",
        "latitude": 27.800802,
        "longitude": -82.6791883,
        "website": null
    },
    {
        "name": "Subway",
        "type": "fast_food",
        "cuisine": "sandwich",
        "latitude": 27.8008434,
        "longitude": -82.6791518,
        "website": "https://restaurants.subway.com/united-states/fl/st-petersburg/3135-34th-st-n"
    },
    {
        "name": "Great Wall",
        "type": "fast_food",
        "cuisine": "chinese",
        "latitude": 27.80085,
        "longitude": -82.637687,
        "website": null
    },
    {
        "name": "Siam Garden",
        "type": "restaurant",
        "cuisine": "thai",
        "latitude": 27.8013268,
        "longitude": -82.646443,
        "website": "https://www.siamgardenthai.com/"
    },
    {
        "name": "Westshore Pizza",
        "type": "fast_food",
        "cuisine": "pizza",
        "latitude": 27.8014601,
        "longitude": -82.6377903,
        "website": null
    },
    {
        "name": "Subway",
        "type": "fast_food",
        "cuisine": "sandwich",
        "latitude": 27.8023247,
        "longitude": -82.6388788,
        "website": "https://restaurants.subway.com/united-states/fl/st-petersburg/33rd-4th-street-n"
    },
    {
        "name": "World Vegan Cuisine",
        "type": "restaurant",
        "cuisine": "Not Specified",
        "latitude": 27.8025172,
        "longitude": -82.6792344,
        "website": "https://worldvegancuisine.com/"
    },
    {
        "name": "Casual Clam",
        "type": "restaurant",
        "cuisine": "seafood",
        "latitude": 27.8027056,
        "longitude": -82.6470082,
        "website": null
    },
    {
        "name": "China Wok",
        "type": "fast_food",
        "cuisine": "chinese",
        "latitude": 27.8033712,
        "longitude": -82.6994506,
        "website": null
    },
    {
        "name": "Subway",
        "type": "fast_food",
        "cuisine": "sandwich",
        "latitude": 27.8033739,
        "longitude": -82.6995456,
        "website": "https://restaurants.subway.com/united-states/fl/st-petersburg/3431-b-49th-st-n"
    },
    {
        "name": "Jimmy's Sports Bar",
        "type": "bar",
        "cuisine": "Not Specified",
        "latitude": 27.8040784,
        "longitude": -82.6798831,
        "website": null
    },
    {
        "name": "Checkers",
        "type": "fast_food",
        "cuisine": "burger",
        "latitude": 27.8041288,
        "longitude": -82.6791579,
        "website": null
    },
    {
        "name": "El Cap",
        "type": "restaurant",
        "cuisine": "burger",
        "latitude": 27.8041855,
        "longitude": -82.6389007,
        "website": null
    },
    {
        "name": "Kristina's Cafe",
        "type": "restaurant",
        "cuisine": "diner",
        "latitude": 27.804315,
        "longitude": -82.6799187,
        "website": null
    },
    {
        "name": "Toby's Original Little Italy Pizza",
        "type": "restaurant",
        "cuisine": "pizza;sandwich;salad",
        "latitude": 27.8046122,
        "longitude": -82.6990736,
        "website": null
    },
    {
        "name": "Chipotle",
        "type": "fast_food",
        "cuisine": "mexican",
        "latitude": 27.8046988,
        "longitude": -82.6388493,
        "website": "https://locations.chipotle.com/fl/saint-petersburg/3540-4th-st-n"
    },
    {
        "name": "Taco Bell",
        "type": "fast_food",
        "cuisine": "tex-mex",
        "latitude": 27.8050996,
        "longitude": -82.6389456,
        "website": "https://locations.tacobell.com/fl/saint-petersburg/3600-4th-street-north.html"
    },
    {
        "name": "Tour de Pizza",
        "type": "restaurant",
        "cuisine": "pizza",
        "latitude": 27.8057301,
        "longitude": -82.6353331,
        "website": "https://www.tourdepizza.com/"
    },
    {
        "name": "Burger King",
        "type": "fast_food",
        "cuisine": "burger",
        "latitude": 27.8058565,
        "longitude": -82.6790817,
        "website": "https://www.bk.com/store-locator/store/restaurant_1727"
    },
    {
        "name": "Hardee's",
        "type": "fast_food",
        "cuisine": "burger",
        "latitude": 27.8062315,
        "longitude": -82.6789386,
        "website": "https://locations.hardees.com/fl/saint-petersburg/3795-34th-st-n"
    },
    {
        "name": "McDonald's",
        "type": "fast_food",
        "cuisine": "burger",
        "latitude": 27.8064616,
        "longitude": -82.6381027,
        "website": "https://www.mcdonalds.com/us/en-us/location/1124.html"
    },
    {
        "name": "Beer Can Island Bar",
        "type": "bar",
        "cuisine": "Not Specified",
        "latitude": 27.8064796,
        "longitude": -82.4442897,
        "website": null
    },
    {
        "name": "Sila Thai",
        "type": "restaurant",
        "cuisine": "thai",
        "latitude": 27.8069522,
        "longitude": -82.7004014,
        "website": null
    },
    {
        "name": "Menchie's",
        "type": "ice_cream",
        "cuisine": "frozen_yogurt",
        "latitude": 27.806977,
        "longitude": -82.635308,
        "website": null
    },
    {
        "name": "Ciccio's California",
        "type": "restaurant",
        "cuisine": "american",
        "latitude": 27.807101,
        "longitude": -82.635292,
        "website": "www.stpete.cicciostampabay.com/"
    },
    {
        "name": "Burger King",
        "type": "fast_food",
        "cuisine": "burger",
        "latitude": 27.8072516,
        "longitude": -82.6389962,
        "website": "https://www.bk.com/store-locator/store/restaurant_3073"
    },
    {
        "name": "Biff Burger",
        "type": "fast_food",
        "cuisine": "burger",
        "latitude": 27.8076268,
        "longitude": -82.6996568,
        "website": null
    },
    {
        "name": "Dunkin' / Baskin Robbins",
        "type": "fast_food",
        "cuisine": "donut;coffee_shop",
        "latitude": 27.8079201,
        "longitude": -82.7003709,
        "website": "https://locations.dunkindonuts.com/en/fl/saint-petersburg/3934-49th-st-n/356562"
    },
    {
        "name": "Chop Stick Express",
        "type": "fast_food",
        "cuisine": "chinese",
        "latitude": 27.8082402,
        "longitude": -82.638922,
        "website": null
    },
    {
        "name": "Pizza Hut",
        "type": "restaurant",
        "cuisine": "pizza",
        "latitude": 27.8088257,
        "longitude": -82.6382549,
        "website": null
    },
    {
        "name": "Lucky Star",
        "type": "restaurant",
        "cuisine": "vietnamese",
        "latitude": 27.8097179,
        "longitude": -82.7281928,
        "website": null
    },
    {
        "name": "Porter's Stone Soup Cafe",
        "type": "restaurant",
        "cuisine": "american",
        "latitude": 27.809726,
        "longitude": -82.655337,
        "website": null
    },
    {
        "name": "McDonald's",
        "type": "fast_food",
        "cuisine": "burger",
        "latitude": 27.8097957,
        "longitude": -82.6994802,
        "website": "https://www.mcdonalds.com/us/en-us/location/7669.html"
    },
    {
        "name": "Hooters",
        "type": "restaurant",
        "cuisine": "burger",
        "latitude": 27.8099364,
        "longitude": -82.6382282,
        "website": "https://www.originalhooters.com/locations/tampa-bay/st-pete-4th-street/"
    },
    {
        "name": "Chick-fil-A",
        "type": "fast_food",
        "cuisine": "chicken",
        "latitude": 27.8109252,
        "longitude": -82.638211,
        "website": "https://www.chick-fil-a.com/locations/fl/fourth-street-north"
    },
    {
        "name": "Twistee Treat",
        "type": "ice_cream",
        "cuisine": "Not Specified",
        "latitude": 27.8112067,
        "longitude": -82.7290504,
        "website": null
    },
    {
        "name": "Luckie B's",
        "type": "restaurant",
        "cuisine": "barbecue",
        "latitude": 27.8118112,
        "longitude": -82.6381158,
        "website": "https://luckiebs.com/"
    },
    {
        "name": "Fred Fleming's BBQ",
        "type": "restaurant",
        "cuisine": "barbecue",
        "latitude": 27.812328,
        "longitude": -82.638883,
        "website": null
    },
    {
        "name": "Fresh Kitchen",
        "type": "restaurant",
        "cuisine": "american",
        "latitude": 27.8125785,
        "longitude": -82.638272,
        "website": "https://www.eatfreshkitchen.com/"
    },
    {
        "name": "EDO Japanese Steakhouse and Sushi Bar",
        "type": "restaurant",
        "cuisine": "japanese;sushi;steak_house",
        "latitude": 27.8128571,
        "longitude": -82.7298774,
        "website": "https://edojapanesesteakhouseandsushibar.com"
    },
    {
        "name": "Dunkin'",
        "type": "fast_food",
        "cuisine": "donut;coffee_shop",
        "latitude": 27.8133898,
        "longitude": -82.7281707,
        "website": "https://locations.dunkindonuts.com/en/fl/kenneth-city/4599-66th-st-n/350016"
    },
    {
        "name": "PDQ",
        "type": "fast_food",
        "cuisine": "chicken",
        "latitude": 27.8136621,
        "longitude": -82.6391694,
        "website": "https://www.eatpdq.com/"
    },
    {
        "name": "Pinoy Saint Pete",
        "type": "restaurant",
        "cuisine": "Not Specified",
        "latitude": 27.8141241,
        "longitude": -82.6328139,
        "website": null
    },
    {
        "name": "Hungry Howie's",
        "type": "fast_food",
        "cuisine": "pizza",
        "latitude": 27.8143929,
        "longitude": -82.7002968,
        "website": null
    },
    {
        "name": "Mad Hatter's Ethnobotanical Tea Bar",
        "type": "cafe",
        "cuisine": "Not Specified",
        "latitude": 27.8145059,
        "longitude": -82.6709999,
        "website": "https://www.madhattersteabar.com/"
    },
    {
        "name": "Taco Bell",
        "type": "fast_food",
        "cuisine": "tex-mex",
        "latitude": 27.8148561,
        "longitude": -82.7281317,
        "website": "https://locations.tacobell.com/fl/kenneth-city/4703-66th-street-north.html"
    },
    {
        "name": "Applebee's",
        "type": "restaurant",
        "cuisine": "american",
        "latitude": 27.815147,
        "longitude": -82.6389628,
        "website": "https://restaurants.applebees.com/en-us/fl/st-petersburg/4700-4th-street-north-89065"
    },
    {
        "name": "Red Mesa",
        "type": "restaurant",
        "cuisine": "mexican",
        "latitude": 27.8168761,
        "longitude": -82.6389891,
        "website": "https://redmesarestaurant.com/"
    },
    {
        "name": "Firehouse Subs",
        "type": "fast_food",
        "cuisine": "sandwich",
        "latitude": 27.816886,
        "longitude": -82.638111,
        "website": null
    },
    {
        "name": "Denny's",
        "type": "restaurant",
        "cuisine": "american",
        "latitude": 27.8170734,
        "longitude": -82.6790246,
        "website": null
    },
    {
        "name": "Mr. Empanada",
        "type": "restaurant",
        "cuisine": "latin_american",
        "latitude": 27.817351,
        "longitude": -82.63891,
        "website": null
    },
    {
        "name": "Starbucks",
        "type": "cafe",
        "cuisine": "coffee_shop",
        "latitude": 27.817437,
        "longitude": -82.638906,
        "website": "https://www.starbucks.com/store-locator/store/10068/4th-st-50th-ave-4946-4th-st-n-space-400-st-petersburg-fl-337033835"
    },
    {
        "name": "Earl of Sandwich",
        "type": "restaurant",
        "cuisine": "sandwich",
        "latitude": 27.8179947,
        "longitude": -82.6391493,
        "website": null
    },
    {
        "name": "Papa John's",
        "type": "fast_food",
        "cuisine": "pizza",
        "latitude": 27.818784,
        "longitude": -82.728893,
        "website": "https://locations.papajohns.com/united-states/fl/33709/st-petersburg/5170-66th-st-n"
    },
    {
        "name": "Bonefish Grill",
        "type": "restaurant",
        "cuisine": "seafood",
        "latitude": 27.8189229,
        "longitude": -82.6390924,
        "website": null
    },
    {
        "name": "Metro Diner",
        "type": "restaurant",
        "cuisine": "diner",
        "latitude": 27.820011,
        "longitude": -82.63916,
        "website": null
    },
    {
        "name": "Fray's Donut House",
        "type": "fast_food",
        "cuisine": "donut",
        "latitude": 27.8201677,
        "longitude": -82.6553361,
        "website": null
    },
    {
        "name": "Zeko's Mediterranian Grill",
        "type": "restaurant",
        "cuisine": "mediterranean",
        "latitude": 27.8206968,
        "longitude": -82.6994978,
        "website": null
    },
    {
        "name": "El Toro Negro",
        "type": "restaurant",
        "cuisine": "Not Specified",
        "latitude": 27.8207946,
        "longitude": -82.7119753,
        "website": null
    },
    {
        "name": "Boardwalk Tavern",
        "type": "bar",
        "cuisine": "Not Specified",
        "latitude": 27.8208746,
        "longitude": -82.6692858,
        "website": null
    },
    {
        "name": "The Cupcake Spot",
        "type": "cafe",
        "cuisine": "cupcake",
        "latitude": 27.8210958,
        "longitude": -82.7134919,
        "website": "https://www.thecupcakespotinc.com/"
    },
    {
        "name": "Doubles Sports Bar",
        "type": "bar",
        "cuisine": "Not Specified",
        "latitude": 27.8212947,
        "longitude": -82.6776699,
        "website": null
    },
    {
        "name": "Hookah",
        "type": "bar",
        "cuisine": "Not Specified",
        "latitude": 27.821391,
        "longitude": -82.727062,
        "website": null
    },
    {
        "name": "McDonald's",
        "type": "fast_food",
        "cuisine": "burger",
        "latitude": 27.8214142,
        "longitude": -82.7289847,
        "website": "https://www.mcdonalds.com/us/en-us/location/5587.html"
    },
    {
        "name": "Waffle House",
        "type": "restaurant",
        "cuisine": "american",
        "latitude": 27.8214354,
        "longitude": -82.6671922,
        "website": "https://locations.wafflehouse.com/stpetersburg-fl-1620/"
    },
    {
        "name": "4th Street Pub",
        "type": "pub",
        "cuisine": "Not Specified",
        "latitude": 27.821499,
        "longitude": -82.638326,
        "website": null
    },
    {
        "name": "Rhythm & Blues Bar & Grill",
        "type": "restaurant",
        "cuisine": "american",
        "latitude": 27.821516,
        "longitude": -82.668546,
        "website": null
    },
    {
        "name": "La Carreta Bakery",
        "type": "restaurant",
        "cuisine": "latin_american",
        "latitude": 27.821556,
        "longitude": -82.670566,
        "website": null
    },
    {
        "name": "ABC Chinese Seafood",
        "type": "restaurant",
        "cuisine": "chinese",
        "latitude": 27.821564,
        "longitude": -82.670271,
        "website": null
    },
    {
        "name": "Cracker Barrel",
        "type": "restaurant",
        "cuisine": "american",
        "latitude": 27.8218071,
        "longitude": -82.6626587,
        "website": null
    },
    {
        "name": "New China",
        "type": "fast_food",
        "cuisine": "chinese",
        "latitude": 27.821931,
        "longitude": -82.712668,
        "website": null
    },
    {
        "name": "Where Else Tavern",
        "type": "bar",
        "cuisine": "Not Specified",
        "latitude": 27.822155,
        "longitude": -82.712677,
        "website": null
    },
    {
        "name": "Doo.Ri.Ban",
        "type": "restaurant",
        "cuisine": "korean",
        "latitude": 27.8230186,
        "longitude": -82.7288761,
        "website": null
    },
    {
        "name": "Hungry Howie's",
        "type": "fast_food",
        "cuisine": "pizza",
        "latitude": 27.823038,
        "longitude": -82.639084,
        "website": null
    },
    {
        "name": "SeaScapes Beach House",
        "type": "restaurant",
        "cuisine": "Not Specified",
        "latitude": 27.823239,
        "longitude": -82.4865668,
        "website": null
    },
    {
        "name": "Cafe Vienna",
        "type": "restaurant",
        "cuisine": "german",
        "latitude": 27.82361,
        "longitude": -82.638273,
        "website": null
    },
    {
        "name": "Oishi Sushi & Japanese Steak House",
        "type": "restaurant",
        "cuisine": "american",
        "latitude": 27.8250235,
        "longitude": -82.6800114,
        "website": null
    },
    {
        "name": "Gigi's Italian Restaurant",
        "type": "restaurant",
        "cuisine": "italian",
        "latitude": 27.8254665,
        "longitude": -82.6380882,
        "website": null
    },
    {
        "name": "Domino's",
        "type": "fast_food",
        "cuisine": "pizza",
        "latitude": 27.825808,
        "longitude": -82.638133,
        "website": null
    },
    {
        "name": "Zbar",
        "type": "bar",
        "cuisine": "Not Specified",
        "latitude": 27.8258969,
        "longitude": -82.6800059,
        "website": null
    },
    {
        "name": "Thuy Cafe",
        "type": "restaurant",
        "cuisine": "chinese",
        "latitude": 27.8262032,
        "longitude": -82.6804867,
        "website": null
    },
    {
        "name": "Paisano's Pizza & Pasta",
        "type": "restaurant",
        "cuisine": "pizza",
        "latitude": 27.826314,
        "longitude": -82.639107,
        "website": null
    },
    {
        "name": "Mekong Vietnamese Restaurant",
        "type": "restaurant",
        "cuisine": "chinese",
        "latitude": 27.82649,
        "longitude": -82.6800019,
        "website": null
    },
    {
        "name": "Cafe 54",
        "type": "cafe",
        "cuisine": "Not Specified",
        "latitude": 27.8266215,
        "longitude": -82.6801132,
        "website": null
    },
    {
        "name": "Thai Am",
        "type": "restaurant",
        "cuisine": "thai",
        "latitude": 27.8268608,
        "longitude": -82.6390418,
        "website": "https://www.thaiamrestaurant.com/"
    },
    {
        "name": "Red Lobster",
        "type": "restaurant",
        "cuisine": "seafood",
        "latitude": 27.8278337,
        "longitude": -82.6792004,
        "website": null
    },
    {
        "name": "Dunkin'",
        "type": "fast_food",
        "cuisine": "donut;coffee_shop",
        "latitude": 27.8278513,
        "longitude": -82.647145,
        "website": "https://locations.dunkindonuts.com/en/fl/saint-petersburg/6325-9th-st-n/357918"
    },
    {
        "name": "Mamus Kitchen",
        "type": "restaurant",
        "cuisine": "italian",
        "latitude": 27.8278944,
        "longitude": -82.7120116,
        "website": null
    },
    {
        "name": "Domino's",
        "type": "fast_food",
        "cuisine": "pizza",
        "latitude": 27.8279472,
        "longitude": -82.7281404,
        "website": "https://pizza.dominos.com/florida/st-petesburg/6191-66th-st-n"
    },
    {
        "name": "Jack's",
        "type": "fast_food",
        "cuisine": "burger",
        "latitude": 27.8281064,
        "longitude": -82.6491741,
        "website": null
    },
    {
        "name": "Spring Garden Family Restaurant",
        "type": "restaurant",
        "cuisine": "american",
        "latitude": 27.828113,
        "longitude": -82.648332,
        "website": null
    },
    {
        "name": "Carmelita's Mexican Restaurant",
        "type": "restaurant",
        "cuisine": "mexican",
        "latitude": 27.828682,
        "longitude": -82.729004,
        "website": null
    },
    {
        "name": "Flowers Discount Bakery Store",
        "type": null,
        "cuisine": "Not Specified",
        "latitude": 27.82873,
        "longitude": -82.696228,
        "website": null
    },
    {
        "name": "Ding Tea",
        "type": "cafe",
        "cuisine": "bubble_tea",
        "latitude": 27.8288486,
        "longitude": -82.729009,
        "website": null
    },
    {
        "name": "Checkers",
        "type": "fast_food",
        "cuisine": "burger",
        "latitude": 27.8288931,
        "longitude": -82.6474626,
        "website": null
    },
    {
        "name": "McDonald's",
        "type": "fast_food",
        "cuisine": "burger",
        "latitude": 27.8289251,
        "longitude": -82.6478496,
        "website": "https://www.mcdonalds.com/us/en-us/location/10891.html"
    },
    {
        "name": "Mochinut",
        "type": null,
        "cuisine": "Not Specified",
        "latitude": 27.8289352,
        "longitude": -82.7289509,
        "website": "https://www.mochinut.com/"
    },
    {
        "name": "Ding Tea",
        "type": "cafe",
        "cuisine": "Not Specified",
        "latitude": 27.8289864,
        "longitude": -82.7289525,
        "website": null
    },
    {
        "name": "KFC",
        "type": "fast_food",
        "cuisine": "chicken",
        "latitude": 27.8293034,
        "longitude": -82.6474186,
        "website": "https://locations.kfc.com/fl/saint-petersburg/6300-ninth-street-n"
    },
    {
        "name": "Arby's",
        "type": "fast_food",
        "cuisine": "sandwich",
        "latitude": 27.8295358,
        "longitude": -82.6800458,
        "website": null
    },
    {
        "name": "Big Apple Buffet II",
        "type": "restaurant",
        "cuisine": "chinese;buffet",
        "latitude": 27.829674,
        "longitude": -82.648274,
        "website": null
    },
    {
        "name": "Sneakers Lounge",
        "type": "pub",
        "cuisine": "american",
        "latitude": 27.8297058,
        "longitude": -82.6503157,
        "website": null
    },
    {
        "name": "Great Wall",
        "type": "restaurant",
        "cuisine": "chinese",
        "latitude": 27.829708,
        "longitude": -82.6501995,
        "website": null
    },
    {
        "name": "Popeyes Louisiana Kitchen",
        "type": "fast_food",
        "cuisine": "american;chicken;pasta",
        "latitude": 27.829874,
        "longitude": -82.6465085,
        "website": "https://popeyes.com/"
    },
    {
        "name": "Pee-Pa's Garage Craft Brewery",
        "type": "pub",
        "cuisine": "Not Specified",
        "latitude": 27.8302764,
        "longitude": -82.7004314,
        "website": null
    },
    {
        "name": "Kalina’s Coffee & European Food",
        "type": "restaurant",
        "cuisine": "european",
        "latitude": 27.8306775,
        "longitude": -82.6461831,
        "website": null
    },
    {
        "name": "Winghouse of Saint Petersburg",
        "type": "restaurant",
        "cuisine": "chicken",
        "latitude": 27.8314954,
        "longitude": -82.6383477,
        "website": "https://winghouse.com/winghouse-locations/33702/winghouse-of-stpetersburg-florida/"
    },