[
    {
        "name": "Spaghetti Warehouse",
        "type": "restaurant",
        "cuisine": "Not Specified",
        "latitude": 27.9614841,
        "longitude": -82.4452048,
        "website": null
    },
    {
        "name": "Jackson's Bistro",
        "type": "restaurant",
        "cuisine": "seafood;sushi",
        "latitude": 27.938872,
        "longitude": -82.454786,
        "website": null
    },
    {
        "name": "Cafe Hey",
        "type": "cafe",
        "cuisine": "Not Specified",
        "latitude": 27.957311,
        "longitude": -82.4603397,
        "website": null
    },
    {
        "name": "Tampa Bay Brewing Company",
        "type": "pub",
        "cuisine": "Not Specified",
        "latitude": 27.9613506,
        "longitude": -82.4416215,
        "website": "https://www.tbbc.beer/"
    },
    {
        "name": "El Puerto Argentinean Grill",
        "type": "restaurant",
        "cuisine": "Not Specified",
        "latitude": 27.958677,
        "longitude": -82.4405852,
        "website": null
    },
    {
        "name": "La Terrazza Restaurant",
        "type": "restaurant",
        "cuisine": "Not Specified",
        "latitude": 27.9601291,
        "longitude": -82.4396789,
        "website": "https://www.laterrazzayborcity.com/"
    },
    {
        "name": "Planet Smoothie",
        "type": "restaurant",
        "cuisine": "Not Specified",
        "latitude": 28.0564812,
        "longitude": -82.4268232,
        "website": null
    },
    {
        "name": "Margarita's Mexican Restaurant",
        "type": "restaurant",
        "cuisine": "mexican",
        "latitude": 27.927235,
        "longitude": -82.4534624,
        "website": "https://www.margaritasmexicanrestaurant.com/"
    },
    {
        "name": "Rick's on the River",
        "type": "restaurant",
        "cuisine": "seafood",
        "latitude": 27.9629707,
        "longitude": -82.4737902,
        "website": null
    },
    {
        "name": "Mise en Place",
        "type": "restaurant",
        "cuisine": "Not Specified",
        "latitude": 27.9447757,
        "longitude": -82.4651799,
        "website": "https://miseonline.com/"
    },
    {
        "name": "Spain Restaurant & Toma Bar",
        "type": "restaurant",
        "cuisine": "Not Specified",
        "latitude": 27.948592,
        "longitude": -82.4591121,
        "website": null
    },
    {
        "name": "Pizza Hut",
        "type": "restaurant",
        "cuisine": "pizza",
        "latitude": 27.9413728,
        "longitude": -82.4664184,
        "website": "https://locations.pizzahut.com/fl/tampa/614-w-platt-st"
    },
    {
        "name": "Carrabba's Italian Grill",
        "type": "restaurant",
        "cuisine": "italian",
        "latitude": 28.0533523,
        "longitude": -82.3943127,
        "website": null
    },
    {
        "name": "Timpano Italian Chop House",
        "type": "restaurant",
        "cuisine": "italian",
        "latitude": 27.9370848,
        "longitude": -82.4760998,
        "website": null
    },
    {
        "name": "Forbici",
        "type": "restaurant",
        "cuisine": "Not Specified",
        "latitude": 27.9358529,
        "longitude": -82.4765011,
        "website": "https://www.eatforbici.com/"
    },
    {
        "name": "Saint Barts Island House",
        "type": "restaurant",
        "cuisine": "Not Specified",
        "latitude": 27.9277596,
        "longitude": -82.4829814,
        "website": null
    },
    {
        "name": "Bernini",
        "type": "restaurant",
        "cuisine": "italian",
        "latitude": 27.9603819,
        "longitude": -82.4403506,
        "website": "https://berniniofybor.com/"
    },
    {
        "name": "Green Iguana Bar & Grill",
        "type": "restaurant",
        "cuisine": "Not Specified",
        "latitude": 27.9605305,
        "longitude": -82.4399653,
        "website": null
    },
    {
        "name": "Acropolis",
        "type": "restaurant",
        "cuisine": "Not Specified",
        "latitude": 28.0834825,
        "longitude": -82.4117189,
        "website": null
    },
    {
        "name": "Mr. Dunderbak's",
        "type": "restaurant",
        "cuisine": "Not Specified",
        "latitude": 28.0831547,
        "longitude": -82.4120512,
        "website": null
    },
    {
        "name": "Dio Modern Mediterranean",
        "type": "restaurant",
        "cuisine": "Not Specified",
        "latitude": 27.9490784,
        "longitude": -82.4583802,
        "website": "https://diotampa.com/"
    },
    {
        "name": "The Grass Root",
        "type": "restaurant",
        "cuisine": "Not Specified",
        "latitude": 27.9671732,
        "longitude": -82.4596695,
        "website": null
    },
    {
        "name": "Tony's Ybor Restaurant",
        "type": "restaurant",
        "cuisine": "Not Specified",
        "latitude": 27.9619617,
        "longitude": -82.4345941,
        "website": null
    },
    {
        "name": "El Paraiso Cafe",
        "type": "restaurant",
        "cuisine": "Not Specified",
        "latitude": 27.960441,
        "longitude": -82.411696,
        "website": null
    },
    {
        "name": "Oasis",
        "type": "pub",
        "cuisine": "Not Specified",
        "latitude": 27.9604379,
        "longitude": -82.4102834,
        "website": null
    },
    {
        "name": "Chicken House Cafe",
        "type": "restaurant",
        "cuisine": "Not Specified",
        "latitude": 27.9702052,
        "longitude": -82.4137653,
        "website": null
    },
    {
        "name": "Rocky's Bar and Grill",
        "type": "pub",
        "cuisine": "Not Specified",
        "latitude": 28.0736083,
        "longitude": -82.4082778,
        "website": null
    },
    {
        "name": "Glory Days",
        "type": "pub",
        "cuisine": "Not Specified",
        "latitude": 28.0799636,
        "longitude": -82.5062307,
        "website": null
    },
    {
        "name": "Gogo's Greek Grill",
        "type": "restaurant",
        "cuisine": "greek",
        "latitude": 27.9445624,
        "longitude": -82.5227903,
        "website": "www.gogosgreekgrill.com"
    },
    {
        "name": "Mitchell's Fish Market",
        "type": "restaurant",
        "cuisine": "Not Specified",
        "latitude": 27.94593,
        "longitude": -82.526465,
        "website": null
    },
    {
        "name": "Maggiano's",
        "type": "restaurant",
        "cuisine": "italian",
        "latitude": 27.946497,
        "longitude": -82.526435,
        "website": null
    },
    {
        "name": "P.F. Chang's",
        "type": "restaurant",
        "cuisine": "asian",
        "latitude": 27.94687,
        "longitude": -82.526133,
        "website": null
    },
    {
        "name": "Landers Steakhouse",
        "type": "restaurant",
        "cuisine": "steak_house",
        "latitude": 27.98753,
        "longitude": -82.505974,
        "website": null
    },
    {
        "name": "Pizza Hut",
        "type": "restaurant",
        "cuisine": "pizza",
        "latitude": 28.0322107,
        "longitude": -82.4149357,
        "website": null
    },
    {
        "name": "Casa Mexicana",
        "type": "restaurant",
        "cuisine": "Not Specified",
        "latitude": 28.0321274,
        "longitude": -82.4140774,
        "website": null
    },
    {
        "name": "Starbucks",
        "type": "cafe",
        "cuisine": "coffee_shop",
        "latitude": 28.059949,
        "longitude": -82.4181562,
        "website": null
    },
    {
        "name": "Pipo's Cuban Cafe",
        "type": "cafe",
        "cuisine": "cuban",
        "latitude": 27.8631434,
        "longitude": -82.6384073,
        "website": null
    },
    {
        "name": "Bonefish Grill",
        "type": "restaurant",
        "cuisine": "seafood",
        "latitude": 27.8189229,
        "longitude": -82.6390924,
        "website": null
    },
    {
        "name": "Jason's Deli",
        "type": "restaurant",
        "cuisine": "sandwich",
        "latitude": 28.0550307,
        "longitude": -82.4291478,
        "website": null
    },
    {
        "name": "Wood-fired Pizza",
        "type": "restaurant",
        "cuisine": "Not Specified",
        "latitude": 28.0814101,
        "longitude": -82.4277271,
        "website": null
    },
    {
        "name": "Grillsmith",
        "type": "restaurant",
        "cuisine": "Not Specified",
        "latitude": 27.932763,
        "longitude": -82.3252743,
        "website": null
    },
    {
        "name": "Bahama Breeze",
        "type": "restaurant",
        "cuisine": "caribbean",
        "latitude": 27.9320284,
        "longitude": -82.3268783,
        "website": null
    },
    {
        "name": "Mellow Mushroom",
        "type": "restaurant",
        "cuisine": "pizza",
        "latitude": 28.057358,
        "longitude": -82.5821417,
        "website": null
    },
    {
        "name": "Sushi Yama",
        "type": "restaurant",
        "cuisine": "japanese",
        "latitude": 27.9439652,
        "longitude": -82.3373973,
        "website": "https://sushiyamatampa.com/"
    },
    {
        "name": "Hooters",
        "type": "restaurant",
        "cuisine": "burger",
        "latitude": 27.9435244,
        "longitude": -82.3360884,
        "website": null
    },
    {
        "name": "Italian Kitchen",
        "type": "restaurant",
        "cuisine": "Not Specified",
        "latitude": 27.8810323,
        "longitude": -82.3282642,
        "website": null
    },
    {
        "name": "Bella Pizza",
        "type": "restaurant",
        "cuisine": "pizza",
        "latitude": 28.0536854,
        "longitude": -82.4011497,
        "website": null
    },
    {
        "name": "Lenny's Sub Shop",
        "type": "restaurant",
        "cuisine": "Not Specified",
        "latitude": 28.053687,
        "longitude": -82.4012328,
        "website": null
    },
    {
        "name": "Petra",
        "type": "restaurant",
        "cuisine": "levantine",
        "latitude": 28.0329697,
        "longitude": -82.4070391,
        "website": null
    },
    {
        "name": "Happi Wok",
        "type": "restaurant",
        "cuisine": "chinese",
        "latitude": 28.0719039,
        "longitude": -82.4293285,
        "website": "https://www.happiwokfl.com/"
    },
    {
        "name": "Picadilly",
        "type": "restaurant",
        "cuisine": "Not Specified",
        "latitude": 28.0713351,
        "longitude": -82.4267656,
        "website": null
    },
    {
        "name": "Bruno's Pizza Pie",
        "type": "restaurant",
        "cuisine": "pizza",
        "latitude": 28.0689758,
        "longitude": -82.4321124,
        "website": null
    },
    {
        "name": "Noodle N' Thai",
        "type": "restaurant",
        "cuisine": "thai",
        "latitude": 28.0696077,
        "longitude": -82.4301249,
        "website": null
    },
    {
        "name": "Tacos Monterrey",
        "type": "restaurant",
        "cuisine": "Not Specified",
        "latitude": 28.0696242,
        "longitude": -82.4313077,
        "website": null
    },
    {
        "name": "Kaleisia Tea Lounge",
        "type": "cafe",
        "cuisine": "tea",
        "latitude": 28.0688473,
        "longitude": -82.4444011,
        "website": null
    },
    {
        "name": "Kaleisia Tea Lounge",
        "type": "cafe",
        "cuisine": "Not Specified",
        "latitude": 28.0688496,
        "longitude": -82.4435133,
        "website": null
    },
    {
        "name": "Legends Sports Bar Grill & Hookah",
        "type": "pub",
        "cuisine": "Not Specified",
        "latitude": 28.0687313,
        "longitude": -82.4449166,
        "website": null
    },
    {
        "name": "Chopstix Dim Sum & Seafood",
        "type": "restaurant",
        "cuisine": "Not Specified",
        "latitude": 28.0689017,
        "longitude": -82.4442267,
        "website": null
    },
    {
        "name": "Morae's Cafe",
        "type": "restaurant",
        "cuisine": "middle_eastern",
        "latitude": 28.0688909,
        "longitude": -82.4437573,
        "website": null
    },
    {
        "name": "Kursat Mediterranean Grill-Market",
        "type": "restaurant",
        "cuisine": "mediterranean",
        "latitude": 28.0696166,
        "longitude": -82.4437736,
        "website": null
    },
    {
        "name": "ChickEElicious Latin American Restaurant",
        "type": "restaurant",
        "cuisine": "latin_american",
        "latitude": 28.0696165,
        "longitude": -82.4436796,
        "website": null
    },
    {
        "name": "El Rey de Oros",
        "type": "restaurant",
        "cuisine": "cuban;mexican",
        "latitude": 28.0695726,
        "longitude": -82.4362526,
        "website": null
    },
    {
        "name": "Jerk Pit",
        "type": "restaurant",
        "cuisine": "jamaican",
        "latitude": 28.0685909,
        "longitude": -82.4369374,
        "website": null
    },
    {
        "name": "Super Saver",
        "type": "restaurant",
        "cuisine": "dominican",
        "latitude": 28.0686495,
        "longitude": -82.4360537,
        "website": null
    },
    {
        "name": "Seafood Select Market & Restaurant",
        "type": "restaurant",
        "cuisine": "Not Specified",
        "latitude": 28.069589,
        "longitude": -82.4348765,
        "website": null
    },
    {
        "name": "Sushi Shabu Shabu",
        "type": "restaurant",
        "cuisine": "Not Specified",
        "latitude": 28.0688867,
        "longitude": -82.4437087,
        "website": null
    },
    {
        "name": "Bull's House Sports Bar & Grill",
        "type": "pub",
        "cuisine": "Not Specified",
        "latitude": 28.0687284,
        "longitude": -82.4414154,
        "website": null
    },
    {
        "name": "No Spoon Pizzeria",
        "type": "restaurant",
        "cuisine": "pizza",
        "latitude": 28.0687295,
        "longitude": -82.4413454,
        "website": null
    },
    {
        "name": "Loving Hut",
        "type": "restaurant",
        "cuisine": "international",
        "latitude": 28.0688036,
        "longitude": -82.4377967,
        "website": null
    },
    {
        "name": "Overtime Pub",
        "type": "pub",
        "cuisine": "Not Specified",
        "latitude": 28.0546713,
        "longitude": -82.3703573,
        "website": null
    },
    {
        "name": "Bangkok Jazz",
        "type": "restaurant",
        "cuisine": "thai",
        "latitude": 28.0548582,
        "longitude": -82.3773955,
        "website": null
    },
    {
        "name": "Asian Wok",
        "type": "restaurant",
        "cuisine": "Not Specified",
        "latitude": 28.0534279,
        "longitude": -82.3927151,
        "website": null
    },
    {
        "name": "Tokyo Sushi Bar",
        "type": "restaurant",
        "cuisine": "Not Specified",
        "latitude": 28.053409,
        "longitude": -82.392109,
        "website": null
    },
    {
        "name": "Gladstone's Grilled Chicken",
        "type": "restaurant",
        "cuisine": "Not Specified",
        "latitude": 28.053915,
        "longitude": -82.3973166,
        "website": null
    },
    {
        "name": "China Star Tampa",
        "type": "restaurant",
        "cuisine": "Not Specified",
        "latitude": 28.0539103,
        "longitude": -82.3970322,
        "website": null
    },
    {
        "name": "RJ Wings 'n' Things Family Sports Pub",
        "type": "pub",
        "cuisine": "Not Specified",
        "latitude": 28.0533659,
        "longitude": -82.3999722,
        "website": null
    },
    {
        "name": "Greek Unique",
        "type": "restaurant",
        "cuisine": "greek",
        "latitude": 28.0536405,
        "longitude": -82.4005033,
        "website": null
    },
    {
        "name": "Starbucks",
        "type": "cafe",
        "cuisine": "coffee_shop",
        "latitude": 28.0549471,
        "longitude": -82.4005167,
        "website": "https://www.starbucks.com/store-locator/store/18452/fowler-50th-5006-e-fowler-tampa-fl-336172146-us"
    },
    {
        "name": "Whistle Junction",
        "type": "restaurant",
        "cuisine": "Not Specified",
        "latitude": 28.0537257,
        "longitude": -82.3980676,
        "website": null
    },
    {
        "name": "Starbucks",
        "type": "cafe",
        "cuisine": "coffee_shop",
        "latitude": 28.063518,
        "longitude": -82.4125053,
        "website": null
    },
    {
        "name": "Tijuana Flats",
        "type": "restaurant",
        "cuisine": "mexican",
        "latitude": 28.0557506,
        "longitude": -82.4276455,
        "website": null
    },
    {
        "name": "Ichiban Japanese Cuisine",
        "type": "restaurant",
        "cuisine": "Not Specified",
        "latitude": 28.055566,
        "longitude": -82.4274872,
        "website": null
    },
    {
        "name": "Pho Quyen Vietnamese Cuisine",
        "type": "restaurant",
        "cuisine": "Not Specified",
        "latitude": 28.0560915,
        "longitude": -82.4293099,
        "website": null
    },
    {
        "name": "Boba",
        "type": "restaurant",
        "cuisine": "Not Specified",
        "latitude": 28.057346,
        "longitude": -82.429849,
        "website": null
    },
    {
        "name": "Gumby's Pizza",
        "type": "restaurant",
        "cuisine": "Not Specified",
        "latitude": 28.0572939,
        "longitude": -82.4297632,
        "website": null
    },
    {
        "name": "First Watch",
        "type": "restaurant",
        "cuisine": "american;breakfast",
        "latitude": 28.0556441,
        "longitude": -82.4292038,
        "website": null
    },
    {
        "name": "Gogo's Greek Grill",
        "type": "restaurant",
        "cuisine": "Not Specified",
        "latitude": 28.0554429,
        "longitude": -82.4291663,
        "website": null
    },
    {
        "name": "Taj Indian Cuisine",
        "type": "restaurant",
        "cuisine": "Not Specified",
        "latitude": 28.0558619,
        "longitude": -82.4292199,
        "website": null
    },
    {
        "name": "China 1",
        "type": "restaurant",
        "cuisine": "Not Specified",
        "latitude": 28.0560867,
        "longitude": -82.4279325,
        "website": null
    },
    {
        "name": "Saigon Bay Vietnamese Restaurant",
        "type": "restaurant",
        "cuisine": "Not Specified",
        "latitude": 28.0535379,
        "longitude": -82.432316,
        "website": null
    },
    {
        "name": "Tia's Mexican Restaurant",
        "type": "restaurant",
        "cuisine": "Not Specified",
        "latitude": 28.0538243,
        "longitude": -82.4276475,
        "website": null
    },
    {
        "name": "Jai Ho Indian Cuisine",
        "type": "restaurant",
        "cuisine": "Not Specified",
        "latitude": 28.0536397,
        "longitude": -82.4334103,
        "website": null
    },
    {
        "name": "The Pub At 8th Avenue",
        "type": "pub",
        "cuisine": "Not Specified",
        "latitude": 27.991187,
        "longitude": -82.695409,
        "website": null
    },
    {
        "name": "China Buffet",
        "type": "restaurant",
        "cuisine": "Not Specified",
        "latitude": 28.0538988,
        "longitude": -82.4464008,
        "website": null
    },
    {
        "name": "Beef O'Brady's",
        "type": "restaurant",
        "cuisine": "Not Specified",
        "latitude": 28.1454169,
        "longitude": -82.2839909,
        "website": null
    },
    {
        "name": "Babalouie's Grill & Sports Pub",
        "type": "pub",
        "cuisine": "Not Specified",
        "latitude": 28.0800211,
        "longitude": -82.4363011,
        "website": null
    },
    {
        "name": "Skipper's Smokehouse",
        "type": "restaurant",
        "cuisine": "Not Specified",
        "latitude": 28.0807547,
        "longitude": -82.4506757,
        "website": null
    },
    {
        "name": "Antonio's Pasta Grille",
        "type": "restaurant",
        "cuisine": "Not Specified",
        "latitude": 28.0519783,
        "longitude": -82.3931147,
        "website": null
    },
    {
        "name": "Queen of Sheba",
        "type": "restaurant",
        "cuisine": "ethiopian",
        "latitude": 28.0487439,
        "longitude": -82.3927587,
        "website": null
    },
    {
        "name": "Meridian Hookah Lounge",
        "type": "cafe",
        "cuisine": "Not Specified",
        "latitude": 28.0523334,
        "longitude": -82.3931334,
        "website": null
    },
    {
        "name": "New Tung Tung Chinese",
        "type": "restaurant",
        "cuisine": "Not Specified",
        "latitude": 28.046619,
        "longitude": -82.3931549,
        "website": null
    },
    {
        "name": "Palm Coffee House & Hookah",
        "type": "cafe",
        "cuisine": "Not Specified",
        "latitude": 28.0462389,
        "longitude": -82.3930604,
        "website": null
    },
    {
        "name": "Green Land Mediterranean Cuisine",
        "type": "restaurant",
        "cuisine": "Not Specified",
        "latitude": 28.0461276,
        "longitude": -82.3930523,
        "website": null
    },
    {
        "name": "California Tacos",
        "type": "restaurant",
        "cuisine": "Not Specified",
        "latitude": 28.0819842,
        "longitude": -82.4441328,
        "website": null
    },
    {
        "name": "China City",
        "type": "restaurant",
        "cuisine": "chinese",
        "latitude": 28.1000502,
        "longitude": -82.3995584,
        "website": "https://www.chinacity-tampa.com/"
    },
    {
        "name": "Ciccio's Lodge",
        "type": "restaurant",
        "cuisine": "Not Specified",
        "latitude": 28.0997807,
        "longitude": -82.3979738,
        "website": null
    },
    {
        "name": "New China King",
        "type": "restaurant",
        "cuisine": "Not Specified",
        "latitude": 28.1454321,
        "longitude": -82.2827181,
        "website": null
    },
    {
        "name": "Barbecue Bistro",
        "type": "restaurant",
        "cuisine": "Not Specified",
        "latitude": 28.1432586,
        "longitude": -82.2914487,
        "website": null
    },
    {
        "name": "Biagio's Pizza-N-Pasta",
        "type": "restaurant",
        "cuisine": "Not Specified",
        "latitude": 28.1442354,
        "longitude": -82.3127591,
        "website": null
    },
    {
        "name": "Swann Avenue Market & Cafe",
        "type": "cafe",
        "cuisine": "Not Specified",
        "latitude": 27.9375872,
        "longitude": -82.4704253,
        "website": null
    },
    {
        "name": "Apollo's Bistro",
        "type": "restaurant",
        "cuisine": "american",
        "latitude": 27.7759193,
        "longitude": -82.4040977,
        "website": "https://www.apollosbistro.com/"
    },
    {
        "name": "Parilla y Carbon Colombian Restaurant",
        "type": "restaurant",
        "cuisine": "Not Specified",
        "latitude": 28.0316375,
        "longitude": -82.393821,
        "website": null
    },
    {
        "name": "New China Chinese Restaurant",
        "type": "restaurant",
        "cuisine": "Not Specified",
        "latitude": 28.0315476,
        "longitude": -82.3938371,
        "website": null
    },
    {
        "name": "Lunch Box",
        "type": "restaurant",
        "cuisine": "Not Specified",
        "latitude": 28.0312587,
        "longitude": -82.3938103,
        "website": null
    },
    {
        "name": "Stefano Greek-Italian Restaurant",
        "type": "restaurant",
        "cuisine": "Not Specified",
        "latitude": 28.0279441,
        "longitude": -82.3936818,
        "website": null
    },
    {
        "name": "The Firehouse Grill & Pub",
        "type": "pub",
        "cuisine": "Not Specified",
        "latitude": 28.0297696,
        "longitude": -82.393831,
        "website": null
    },
    {
        "name": "Gaspar's Patio Bar & Grille",
        "type": "restaurant",
        "cuisine": "Not Specified",
        "latitude": 28.0273538,
        "longitude": -82.3939221,
        "website": null
    },
    {
        "name": "Gaspar's Pool Room",
        "type": "pub",
        "cuisine": "Not Specified",
        "latitude": 28.0275906,
        "longitude": -82.3939237,
        "website": null
    },
    {
        "name": "The Greenery",
        "type": "pub",
        "cuisine": "Not Specified",
        "latitude": 28.0716983,
        "longitude": -82.4143788,
        "website": null
    },
    {
        "name": "Terra Gaucha",
        "type": "restaurant",
        "cuisine": "brazilian;steak_house",
        "latitude": 27.9327502,
        "longitude": -82.505263,
        "website": "https://terragaucha.com/"
    },
    {
        "name": "Bulls Club",
        "type": "pub",
        "cuisine": "Not Specified",
        "latitude": 28.0535968,
        "longitude": -82.4454308,
        "website": null
    },
    {
        "name": "Annapurana",
        "type": "restaurant",
        "cuisine": "indian",
        "latitude": 28.0535826,
        "longitude": -82.4452216,
        "website": null
    },
    {
        "name": "Lenny's Latiln Cafe",
        "type": "restaurant",
        "cuisine": "cuban",
        "latitude": 28.0481127,
        "longitude": -82.3941849,
        "website": null
    },
    {
        "name": "Five Star Pizza",
        "type": "restaurant",
        "cuisine": "Not Specified",
        "latitude": 28.0482524,
        "longitude": -82.3941902,
        "website": null
    },
    {
        "name": "Philly Steak City",
        "type": "restaurant",
        "cuisine": "Not Specified",
        "latitude": 28.0461953,
        "longitude": -82.394142,
        "website": null
    },
    {
        "name": "Tampa Cloud Hookah Lounge",
        "type": "cafe",
        "cuisine": "Not Specified",
        "latitude": 28.0462497,
        "longitude": -82.3941393,
        "website": null
    },
    {
        "name": "Pizza Hut",
        "type": "restaurant",
        "cuisine": "pizza",
        "latitude": 28.0460509,
        "longitude": -82.3941512,
        "website": "https://locations.pizzahut.com/fl/temple-terrace/10694-n-56th-st"
    },
    {
        "name": "Sawatdee Thai Cuisine",
        "type": "restaurant",
        "cuisine": "thai",
        "latitude": 28.048456,
        "longitude": -82.3941888,
        "website": null
    },
    {
        "name": "Barrio Tacos",
        "type": "restaurant",
        "cuisine": "tacos",
        "latitude": 27.9604568,
        "longitude": -82.4381857,
        "website": "https://barrio-tacos.com/locations/yborcity/"
    },
    {
        "name": "Taco Bus",
        "type": "restaurant",
        "cuisine": "mexican",
        "latitude": 27.9486927,
        "longitude": -82.4582266,
        "website": null
    },
    {
        "name": "Starbucks",
        "type": "cafe",
        "cuisine": "coffee_shop",
        "latitude": 27.9966233,
        "longitude": -82.4549431,
        "website": "https://www.starbucks.com/store-locator/store/7996/i-275-hillsborough-502-e-hillsborough-avenue-tampa-fl-336047042-us"
    },
    {
        "name": "Chanko",
        "type": "restaurant",
        "cuisine": "japanese",
        "latitude": 27.9872121,
        "longitude": -82.4592302,
        "website": "https://www.chanko-ichiban.com/"
    },
    {
        "name": "Tampa Pizza Company",
        "type": "restaurant",
        "cuisine": "pizza",
        "latitude": 27.9497336,
        "longitude": -82.4600139,
        "website": "https://tampapizzacompany.com/location/downtown-tampa/"
    },
    {
        "name": "Urban Cantina",
        "type": "restaurant",
        "cuisine": "mexican",
        "latitude": 27.9483499,
        "longitude": -82.458988,
        "website": "https://www.urbancantina.com/"
    },
    {
        "name": "Taste of India",
        "type": "restaurant",
        "cuisine": "indian",
        "latitude": 28.0538616,
        "longitude": -82.4467561,
        "website": null
    },
    {
        "name": "Metro Diner",
        "type": "restaurant",
        "cuisine": "diner",
        "latitude": 27.820011,
        "longitude": -82.63916,
        "website": null
    },
    {
        "name": "4th Street Pub",
        "type": "pub",
        "cuisine": "Not Specified",
        "latitude": 27.821499,
        "longitude": -82.638326,
        "website": null
    },
    {
        "name": "Cafe Vienna",
        "type": "restaurant",
        "cuisine": "german",
        "latitude": 27.82361,
        "longitude": -82.638273,
        "website": null
    },
    {
        "name": "Felicitous",
        "type": "cafe",
        "cuisine": "Not Specified",
        "latitude": 28.055356,
        "longitude": -82.4000437,
        "website": null
    },
    {
        "name": "Tarek's Cafe",
        "type": "restaurant",
        "cuisine": "Not Specified",
        "latitude": 28.0678921,
        "longitude": -82.4247818,
        "website": null
    },
    {
        "name": "Subs-N-Such",
        "type": "restaurant",
        "cuisine": "Not Specified",
        "latitude": 28.0807508,
        "longitude": -82.4302657,
        "website": null
    },
    {
        "name": "Samaria Cafe",
        "type": "restaurant",
        "cuisine": "american",
        "latitude": 27.9483493,
        "longitude": -82.4593619,
        "website": null
    },
    {
        "name": "Cappy's Pizza",
        "type": "restaurant",
        "cuisine": "Not Specified",
        "latitude": 27.9912758,
        "longitude": -82.459735,
        "website": null
    },
    {
        "name": "Mango's Southern Kitchen + Bar",
        "type": "restaurant",
        "cuisine": "caribbean;southern",
        "latitude": 27.994135,
        "longitude": -82.459271,
        "website": "https://www.mangoscafetampa.com/"
    },
    {
        "name": "Westshore Pizza",
        "type": "restaurant",
        "cuisine": "pizza",
        "latitude": 28.132073,
        "longitude": -82.3658546,
        "website": "https://westshorepizza.com"
    },
    {
        "name": "Little Habana Cafe",
        "type": "restaurant",
        "cuisine": "cuban",
        "latitude": 27.7900475,
        "longitude": -82.3427251,
        "website": "https://www.littlehabanacafe.com/"
    },
    {
        "name": "Habana Deli",
        "type": "cafe",
        "cuisine": "spanish",
        "latitude": 28.0103007,
        "longitude": -82.4880824,
        "website": null
    },
    {
        "name": "Hank's Catfish & BBQ",
        "type": "restaurant",
        "cuisine": "barbecue",
        "latitude": 28.02838,
        "longitude": -82.505546,
        "website": "www.hanksplacetampa.com"
    },
    {
        "name": "Iavarone's Steak House & Italian Grill",
        "type": "restaurant",
        "cuisine": "italian",
        "latitude": 28.029327,
        "longitude": -82.501517,
        "website": "https://iavaronessteakhouse.com/"
    },
    {
        "name": "Just In Thyme Cafe",
        "type": "restaurant",
        "cuisine": "spanish",
        "latitude": 27.9810328,
        "longitude": -82.482257,
        "website": null
    },
    {
        "name": "Castillo's Cafe & Catering Company",
        "type": "restaurant",
        "cuisine": "Not Specified",
        "latitude": 27.9576914,
        "longitude": -82.4852672,
        "website": null
    },
    {
        "name": "Frank-el Soul Food and Carribean grocery",
        "type": "restaurant",
        "cuisine": "Not Specified",
        "latitude": 28.0688987,
        "longitude": -82.4441591,
        "website": null
    },
    {
        "name": "China Latina",
        "type": "restaurant",
        "cuisine": "Not Specified",
        "latitude": 28.0322908,
        "longitude": -82.417001,
        "website": null
    },
    {
        "name": "Top of the Palms",
        "type": "restaurant",
        "cuisine": "Not Specified",
        "latitude": 28.0637416,
        "longitude": -82.4134287,
        "website": null
    },
    {
        "name": "Starbucks",
        "type": "cafe",
        "cuisine": "coffee_shop",
        "latitude": 27.9199272,
        "longitude": -82.4992532,
        "website": "https://www.starbucks.com/store-locator/store/11302/3400-bay-to-bay-blvd-3409-bay-to-bay-blvd-tampa-fl-336297042-us"
    },
    {
        "name": "Thai Island",
        "type": "restaurant",
        "cuisine": "thai",
        "latitude": 27.9271493,
        "longitude": -82.4539027,
        "website": null
    },
    {
        "name": "220 East Restaurant and Bar",
        "type": "restaurant",
        "cuisine": "Not Specified",
        "latitude": 27.9268082,
        "longitude": -82.4538173,
        "website": "https://www.220east.com/"
    },
    {
        "name": "The Fountain Mediterranean Cuisine",
        "type": "restaurant",
        "cuisine": "Not Specified",
        "latitude": 27.9263423,
        "longitude": -82.4534532,
        "website": null
    },
    {
        "name": "Molly Malone's Irish Pub",
        "type": "restaurant",
        "cuisine": "irish",
        "latitude": 27.9254626,
        "longitude": -82.4529928,
        "website": "http://www.mollymalonestampa.com/"
    },
    {
        "name": "TeBella Tea Company",
        "type": "cafe",
        "cuisine": "tea",
        "latitude": 27.9267772,
        "longitude": -82.4532186,
        "website": "https://tebellatea.com/"
    },
    {
        "name": "Grecian Island",
        "type": "restaurant",
        "cuisine": "greek",
        "latitude": 27.9268371,
        "longitude": -82.4532506,
        "website": null
    },
    {
        "name": "Columbia Cafe",
        "type": "cafe",
        "cuisine": "spanish",
        "latitude": 27.9419698,
        "longitude": -82.4499912,
        "website": null
    },
    {
        "name": "Bay Pizzaria",
        "type": "restaurant",
        "cuisine": "Not Specified",
        "latitude": 28.0809737,
        "longitude": -82.4302809,
        "website": null
    },
    {
        "name": "Big Pappas Pit",
        "type": "restaurant",
        "cuisine": "Not Specified",
        "latitude": 28.0807889,
        "longitude": -82.4280399,
        "website": null
    },
    {
        "name": "Seasons Fresh",
        "type": "restaurant",
        "cuisine": "Not Specified",
        "latitude": 28.081177,
        "longitude": -82.4280077,
        "website": null
    },
    {
        "name": "Gas & Grills",
        "type": "restaurant",
        "cuisine": "Not Specified",
        "latitude": 28.0810586,
        "longitude": -82.430297,
        "website": null
    },
    {
        "name": "Marchismo Burrito Bar",
        "type": "restaurant",
        "cuisine": "Not Specified",
        "latitude": 28.0809926,
        "longitude": -82.428056,
        "website": null
    },
    {
        "name": "Soho Sushi",
        "type": "restaurant",
        "cuisine": "Not Specified",
        "latitude": 28.081383,
        "longitude": -82.427557,
        "website": null
    },
    {
        "name": "Cafe Perera",
        "type": "cafe",
        "cuisine": "cuban",
        "latitude": 27.9504368,
        "longitude": -82.4560146,
        "website": null
    },
    {
        "name": "Nature's Table Cafe",
        "type": "cafe",
        "cuisine": "Not Specified",
        "latitude": 27.8927458,
        "longitude": -82.6670503,
        "website": null
    },
    {
        "name": "Westshore Pizza",
        "type": "restaurant",
        "cuisine": "pizza",
        "latitude": 28.006608,
        "longitude": -82.503585,
        "website": null
    },
    {
        "name": "Pattaya Thai",
        "type": "restaurant",
        "cuisine": "thai",
        "latitude": 27.961208,
        "longitude": -82.72204,
        "website": null
    },
    {
        "name": "Starbucks",
        "type": "cafe",
        "cuisine": "coffee_shop",
        "latitude": 27.817437,
        "longitude": -82.638906,
        "website": "https://www.starbucks.com/store-locator/store/10068/4th-st-50th-ave-4946-4th-st-n-space-400-st-petersburg-fl-337033835"
    },
    {
        "name": "Little Greek",
        "type": "restaurant",
        "cuisine": "mediterranean",
        "latitude": 27.8929612,
        "longitude": -82.6842896,
        "website": null
    },
    {
        "name": "Panchero's",
        "type": "restaurant",
        "cuisine": "mexican",
        "latitude": 27.8933419,
        "longitude": -82.6842845,
        "website": null
    },
    {
        "name": "Starbucks",
        "type": "cafe",
        "cuisine": "coffee_shop",
        "latitude": 27.893451,
        "longitude": -82.68844,
        "website": null
    },
    {
        "name": "Jason's Deli",
        "type": "restaurant",
        "cuisine": "sandwich",
        "latitude": 28.0064629,
        "longitude": -82.7286305,
        "website": null
    },
    {
        "name": "Beef O'Brady's",
        "type": "restaurant",
        "cuisine": "american",
        "latitude": 28.0118184,
        "longitude": -82.7118003,
        "website": null
    },
    {
        "name": "Rodie's Restaurant & Pancake House",
        "type": "restaurant",
        "cuisine": "american",
        "latitude": 28.011621,
        "longitude": -82.711806,
        "website": null
    },
    {
        "name": "Ocean Blue Sushi",
        "type": "restaurant",
        "cuisine": "sushi",
        "latitude": 28.0113372,
        "longitude": -82.7108462,
        "website": null
    },
    {
        "name": "Varsity Club",
        "type": "restaurant",
        "cuisine": "american",
        "latitude": 27.9911327,
        "longitude": -82.7279769,
        "website": null
    },
    {
        "name": "China Taste",
        "type": "restaurant",
        "cuisine": "chinese",
        "latitude": 28.0125707,
        "longitude": -82.7114474,
        "website": null
    },
    {
        "name": "Thai Spice",
        "type": "restaurant",
        "cuisine": "thai",
        "latitude": 28.0113222,
        "longitude": -82.7114998,
        "website": null
    },
    {
        "name": "Pico Rojo",
        "type": "restaurant",
        "cuisine": "latin_american",
        "latitude": 28.011328,
        "longitude": -82.711294,
        "website": "https://www.picorojo.com"
    },
    {
        "name": "Laziz",
        "type": "restaurant",
        "cuisine": "indian",
        "latitude": 28.011328,
        "longitude": -82.710959,
        "website": null
    },
    {
        "name": "Westshore Pizza",
        "type": "restaurant",
        "cuisine": "pizza",
        "latitude": 28.0112143,
        "longitude": -82.7101764,
        "website": null
    },
    {
        "name": "Starbucks",
        "type": "cafe",
        "cuisine": "coffee_shop",
        "latitude": 28.0141109,
        "longitude": -82.709414,
        "website": "https://www.starbucks.com/store-locator/store/17583/n-mc-mullen-booth-enterprise-2560-mc-mullen-booth-road-clearwater-fl-337614182-"
    },
    {
        "name": "Starbucks",
        "type": "cafe",
        "cuisine": "coffee_shop",
        "latitude": 27.9906547,
        "longitude": -82.6890649,
        "website": "https://www.starbucks.com/store-locator/store/7431/main-st-bayshore-100-main-st-safety-harbor-fl-346953657-us"
    },
    {
        "name": "MacDinton's",
        "type": "pub",
        "cuisine": "american",
        "latitude": 27.9404753,
        "longitude": -82.4832235,
        "website": null
    },
    {
        "name": "Cry Baby Cafe",
        "type": "cafe",
        "cuisine": "breakfast;lunch;pastry",
        "latitude": 27.9396236,
        "longitude": -82.4515285,
        "website": "http://thecrybabycafe.com/"
    },
    {
        "name": "Sneakers Lounge",
        "type": "pub",
        "cuisine": "american",
        "latitude": 27.8297058,
        "longitude": -82.6503157,
        "website": null
    },
    {
        "name": "Great Wall",
        "type": "restaurant",
        "cuisine": "chinese",
        "latitude": 27.829708,
        "longitude": -82.6501995,
        "website": null
    },
    {
        "name": "Spring Garden Family Restaurant",
        "type": "restaurant",
        "cuisine": "american",
        "latitude": 27.828113,
        "longitude": -82.648332,
        "website": null
    },
    {
        "name": "Gigi's Italian Restaurant",
        "type": "restaurant",
        "cuisine": "italian",
        "latitude": 27.8254665,
        "longitude": -82.6380882,
        "website": null
    },
    {
        "name": "Cafe Dufrain",
        "type": "restaurant",
        "cuisine": "american",
        "latitude": 27.9398018,
        "longitude": -82.4518812,
        "website": null
    },
    {
        "name": "Watervue Grille",
        "type": "restaurant",
        "cuisine": "american",
        "latitude": 27.9399629,
        "longitude": -82.4514682,
        "website": "https://watervuegrille.com/"
    },
    {
        "name": "Shula's Steak House",
        "type": "restaurant",
        "cuisine": "steak_house",
        "latitude": 27.9439869,
        "longitude": -82.5252651,
        "website": null
    },
    {
        "name": "Skyway Jacks",
        "type": "restaurant",
        "cuisine": "diner",
        "latitude": 27.8736905,
        "longitude": -82.6403159,
        "website": null
    },
    {
        "name": "Cody's Roadhouse",
        "type": "restaurant",
        "cuisine": "american",
        "latitude": 27.8745932,
        "longitude": -82.6401695,
        "website": null
    },
    {
        "name": "Sushi Zen",
        "type": "restaurant",
        "cuisine": "sushi",
        "latitude": 27.8725602,
        "longitude": -82.640133,
        "website": null
    },
    {
        "name": "China Fun",
        "type": "restaurant",
        "cuisine": "chinese",
        "latitude": 27.8725184,
        "longitude": -82.6400809,
        "website": null
    },
    {
        "name": "Goodfellas Pizza & Wings",
        "type": "restaurant",
        "cuisine": "pizza",
        "latitude": 27.8724032,
        "longitude": -82.6394823,
        "website": null
    },
    {
        "name": "Thai Wok",
        "type": "restaurant",
        "cuisine": "thai",
        "latitude": 27.8744458,
        "longitude": -82.6401708,
        "website": null
    },
    {
        "name": "Suegra Tequila Cantina",
        "type": "restaurant",
        "cuisine": "mexican",
        "latitude": 28.0352012,
        "longitude": -82.6549334,
        "website": "https://suegratequilacantina.com/"
    },
    {
        "name": "Buffalo Wild Wings",
        "type": "restaurant",
        "cuisine": "wings",
        "latitude": 28.0351236,
        "longitude": -82.6545631,
        "website": null
    },
    {
        "name": "Cuban Breezes",
        "type": "restaurant",
        "cuisine": "latin_american",
        "latitude": 28.032287,
        "longitude": -82.6476832,
        "website": null
    },
    {
        "name": "Peggy O'Neills",
        "type": "pub",
        "cuisine": "fried_food",
        "latitude": 28.0321307,
        "longitude": -82.6462983,
        "website": null
    },
    {
        "name": "Chart House",
        "type": "restaurant",
        "cuisine": "seafood",
        "latitude": 27.9659851,
        "longitude": -82.5666177,
        "website": null
    },
    {
        "name": "Cody's Roadhouse",
        "type": "restaurant",
        "cuisine": "american",
        "latitude": 28.0102306,
        "longitude": -82.6087102,
        "website": null
    },
    {
        "name": "Garden Grille",
        "type": "restaurant",
        "cuisine": "diner",
        "latitude": 27.9969992,
        "longitude": -82.5786375,
        "website": null
    },
    {
        "name": "Lee Garden",
        "type": "restaurant",
        "cuisine": "chinese",
        "latitude": 27.9970085,
        "longitude": -82.5761067,
        "website": null
    },
    {
        "name": "House of China",
        "type": "restaurant",
        "cuisine": "chinese",
        "latitude": 27.8944344,
        "longitude": -82.6868242,
        "website": null
    },
    {
        "name": "Oriental Super Buffet",
        "type": "restaurant",
        "cuisine": "chinese",
        "latitude": 27.9610319,
        "longitude": -82.7355876,
        "website": null
    },
    {
        "name": "TRANG VIET Cuisine",
        "type": "restaurant",
        "cuisine": "Not Specified",
        "latitude": 28.0551473,
        "longitude": -82.4415565,
        "website": null
    },
    {
        "name": "River's Edge",
        "type": "restaurant",
        "cuisine": "american",
        "latitude": 27.9459457,
        "longitude": -82.4594841,
        "website": "https://www.hoteltampariverwalk.com/best-restaurant-in-tampa/rivers-edge"
    },
    {
        "name": "Maestro's Restaurant",
        "type": "restaurant",
        "cuisine": "Not Specified",
        "latitude": 27.9511862,
        "longitude": -82.4635356,
        "website": null
    },
    {
        "name": "Tijuana Flats",
        "type": "restaurant",
        "cuisine": "mexican",
        "latitude": 27.865729,
        "longitude": -82.642364,
        "website": null
    },
    {
        "name": "Estela's",
        "type": "restaurant",
        "cuisine": "mexican",
        "latitude": 27.8668807,
        "longitude": -82.6455495,
        "website": null
    },
    {
        "name": "Lonni's",
        "type": "restaurant",
        "cuisine": "sandwich",
        "latitude": 27.894425,
        "longitude": -82.6694113,
        "website": null
    },
    {
        "name": "Subs & Deli",
        "type": "restaurant",
        "cuisine": "sandwich",
        "latitude": 28.058421,
        "longitude": -82.7381921,
        "website": null
    },
    {
        "name": "Hooters",
        "type": "restaurant",
        "cuisine": "burger",
        "latitude": 27.9965477,
        "longitude": -82.5145349,
        "website": null
    },
    {
        "name": "Nick's Cafe",
        "type": "restaurant",
        "cuisine": "russian",
        "latitude": 27.937724,
        "longitude": -82.729279,
        "website": null
    },
    {
        "name": "Pizza Hut",
        "type": "restaurant",
        "cuisine": "pizza",
        "latitude": 27.854754,
        "longitude": -82.638302,
        "website": "https://locations.pizzahut.com/fl/saint-petersburg/9099-4th-st-n"
    },
    {
        "name": "Starbucks",
        "type": "cafe",
        "cuisine": "coffee_shop",
        "latitude": 27.85279,
        "longitude": -82.638357,
        "website": "https://www.starbucks.com/store-locator/store/6692/4th-st-89th-ave-8801-4th-st-n-st-petersburg-fl-337023123-us"
    },
    {
        "name": "The Blind Tiger Café Westchase",
        "type": "cafe",
        "cuisine": "coffee_shop",
        "latitude": 28.0440713,
        "longitude": -82.597204,
        "website": null
    },
    {
        "name": "BJ's",
        "type": "restaurant",
        "cuisine": "american",
        "latitude": 28.0168257,
        "longitude": -82.734583,
        "website": "https://www.bjsrestaurants.com/locations/fl/clearwater"
    },
    {
        "name": "Greek City",
        "type": "restaurant",
        "cuisine": "greek",
        "latitude": 28.0199256,
        "longitude": -82.7328383,
        "website": null
    },
    {
        "name": "Bonefish Grill",
        "type": "restaurant",
        "cuisine": "seafood",
        "latitude": 28.0140094,
        "longitude": -82.70808,
        "website": null
    },
    {
        "name": "Applebee's",
        "type": "restaurant",
        "cuisine": "american",
        "latitude": 27.995568,
        "longitude": -82.509698,
        "website": "https://restaurants.applebees.com/en-us/fl/tampa/4006-w-hillsborough-ave.-98059"
    },
    {
        "name": "Paisano's Pizza & Pasta",
        "type": "restaurant",
        "cuisine": "pizza",
        "latitude": 27.826314,
        "longitude": -82.639107,
        "website": null
    },
    {
        "name": "R-Cafe",
        "type": "restaurant",
        "cuisine": "Not Specified",
        "latitude": 27.9916856,
        "longitude": -82.7285496,
        "website": null
    },
    {
        "name": "Starbucks",
        "type": "cafe",
        "cuisine": "coffee_shop",
        "latitude": 28.0404982,
        "longitude": -82.5053831,
        "website": "https://www.starbucks.com/store-locator/store/68130/n-dale-mabry-linebaugh-10002-n-dale-mabry-hwy-tampa-fl-336184410-us"
    },
    {
        "name": "Acropolis",
        "type": "restaurant",
        "cuisine": "greek",
        "latitude": 27.9601637,
        "longitude": -82.4381293,
        "website": "https://acropolistaverna.com/ybor-city/"
    },
    {
        "name": "Starbucks",
        "type": "cafe",
        "cuisine": "coffee_shop",
        "latitude": 28.0495675,
        "longitude": -82.695794,
        "website": "https://www.starbucks.com/store-locator/store/15418/curlew-rd-tampa-rd-3180-tampa-road-oldsmar-fl-346772297-us"
    },
    {
        "name": "Yeoman's Cask & Lion",
        "type": "restaurant",
        "cuisine": "regional",
        "latitude": 27.947265,
        "longitude": -82.4550292,
        "website": "https://www.yeomanscaskandlion.com/"
    },
    {
        "name": "International Cafe",
        "type": "cafe",
        "cuisine": "international",
        "latitude": 27.9498259,
        "longitude": -82.4557704,
        "website": "http://icafeonline.net/"
    },
    {
        "name": "Southern Fresh",
        "type": "restaurant",
        "cuisine": "Not Specified",
        "latitude": 27.9912077,
        "longitude": -82.6900339,
        "website": null
    },
    {
        "name": "Mr. Empanada",
        "type": "restaurant",
        "cuisine": "latin_american",
        "latitude": 27.817351,
        "longitude": -82.63891,
        "website": null
    },
    {
        "name": "Mamas Kitchen Family Diner",
        "type": "restaurant",
        "cuisine": "Not Specified",
        "latitude": 28.034616,
        "longitude": -82.459843,
        "website": null
    },
    {
        "name": "Sonny's Real Pit Bar-B-Q",
        "type": "restaurant",
        "cuisine": "Not Specified",
        "latitude": 28.049732,
        "longitude": -82.737679,
        "website": null
    },
    {
        "name": "Starbucks",
        "type": "cafe",
        "cuisine": "coffee_shop",
        "latitude": 28.049932,
        "longitude": -82.737694,
        "website": "https://www.starbucks.com/store-locator/store/17155/us-19-curlew-rd-30503-us-hwy-19-n-unit-b-palm-harbor-fl-346844412-"
    },
    {
        "name": "Larry's Giant Subs",
        "type": "restaurant",
        "cuisine": "american",
        "latitude": 27.9451616,
        "longitude": -82.5074214,
        "website": null
    },
    {
        "name": "Yummy Thai",
        "type": "restaurant",
        "cuisine": "thai",
        "latitude": 27.8668929,
        "longitude": -82.6450904,
        "website": "https://www.yummythairoosevelt.com/"
    },
    {
        "name": "Gran Agave",
        "type": "restaurant",
        "cuisine": "mexican",
        "latitude": 27.8943923,
        "longitude": -82.3181158,
        "website": "http://www.lunasmexicanrest.com/florida/main.html"
    },
    {
        "name": "Lemon Grass Thai Kitchen",
        "type": "restaurant",
        "cuisine": "Not Specified",
        "latitude": 27.894013,
        "longitude": -82.3177832,
        "website": null
    },
    {
        "name": "Starbucks",
        "type": "cafe",
        "cuisine": "coffee_shop",
        "latitude": 27.8929298,
        "longitude": -82.3166063,
        "website": "https://www.starbucks.com/store-locator/store/7537/winthrop-town-centre-6042-winthrop-town-centre-ave-space-326-riverview-"
    },
    {
        "name": "Acropolis Greek Taverna",
        "type": "restaurant",
        "cuisine": "greek",
        "latitude": 27.892645,
        "longitude": -82.3166172,
        "website": "https://www.acropolistaverna.com/"
    },
    {
        "name": "Taco Bus",
        "type": "restaurant",
        "cuisine": "mexican",
        "latitude": 27.995896,
        "longitude": -82.450242,
        "website": null
    },
    {
        "name": "Big Apple Buffet II",
        "type": "restaurant",
        "cuisine": "chinese;buffet",
        "latitude": 27.829674,
        "longitude": -82.648274,
        "website": null
    },
    {
        "name": "Sông Huong",
        "type": "restaurant",
        "cuisine": "vietnamese",
        "latitude": 28.025062,
        "longitude": -82.511209,
        "website": "songhuongrestaurant.com"
    },
    {
        "name": "Indian Cuisine",
        "type": "restaurant",
        "cuisine": "indian",
        "latitude": 28.025868,
        "longitude": -82.510024,
        "website": null
    },
    {
        "name": "NY Pizza Grill",
        "type": "restaurant",
        "cuisine": "pizza",
        "latitude": 27.945178,
        "longitude": -82.517374,
        "website": null
    },
    {
        "name": "Columbia Restaurant Cafe",
        "type": "restaurant",
        "cuisine": "international",
        "latitude": 27.9802378,
        "longitude": -82.5382789,
        "website": null
    },
    {
        "name": "Starbucks",
        "type": "cafe",
        "cuisine": "coffee_shop",
        "latitude": 27.9795136,
        "longitude": -82.5382647,
        "website": "https://www.starbucks.com/store-locator/store/1014723/tpa-airside-e-gate-71-4100-george-j-bean-pkwy-tampa-fl-33607-us"
    },
    {
        "name": "Marco's Pizza",
        "type": "restaurant",
        "cuisine": "pizza",
        "latitude": 28.012564,
        "longitude": -82.7116,
        "website": null
    },
    {
        "name": "AQUA Bar & Grill ",
        "type": "restaurant",
        "cuisine": "american",
        "latitude": 27.968118,
        "longitude": -82.565535,
        "website": null
    },
    {
        "name": "Starbucks",
        "type": "cafe",
        "cuisine": "coffee_shop",
        "latitude": 27.967948,
        "longitude": -82.565808,
        "website": "https://www.starbucks.com/store-locator/store/7764/westin-tampa-bay-7627-w-courtney-campbell-causeway-tampa-fl-3360714"
    },
    {
        "name": "Reilly's Reserve",
        "type": "restaurant",
        "cuisine": "Not Specified",
        "latitude": 28.0156515,
        "longitude": -82.4704132,
        "website": null
    },
    {
        "name": "Safara Lodge Food Court",
        "type": "restaurant",
        "cuisine": "Not Specified",
        "latitude": 28.015629,
        "longitude": -82.47017,
        "website": null
    },
    {
        "name": "Starbucks",
        "type": "cafe",
        "cuisine": "coffee_shop",
        "latitude": 27.941954,
        "longitude": -82.455144,
        "website": "https://www.starbucks.com/store-locator/store/17279/tampa-embassy-suites-conv-cnt-513-s-florida-ave-tampa-fl-336025419-us"
    },
    {
        "name": "The Brunchery",
        "type": "restaurant",
        "cuisine": "breakfast",
        "latitude": 27.9162245,
        "longitude": -82.4943336,
        "website": "https://www.brunchery.com/"
    },
    {
        "name": "Sakana",
        "type": "restaurant",
        "cuisine": "japanese",
        "latitude": 27.893245,
        "longitude": -82.490873,
        "website": null
    },
    {
        "name": "Champs Sports Bar and Grill",
        "type": "restaurant",
        "cuisine": "american",
        "latitude": 27.9405178,
        "longitude": -82.4544456,
        "website": null
    },
    {
        "name": "Il Terrazzo",
        "type": "restaurant",
        "cuisine": "italian",
        "latitude": 27.9404956,
        "longitude": -82.4545181,
        "website": null
    },
    {
        "name": "Lemon Grass",
        "type": "restaurant",
        "cuisine": "thai",
        "latitude": 27.9450108,
        "longitude": -82.503035,
        "website": "https://lemongrassbestthai.biz/"
    },
    {
        "name": "Kobe Steakhouse",
        "type": "restaurant",
        "cuisine": "japanese",
        "latitude": 28.033559,
        "longitude": -82.737208,
        "website": null
    },
    {
        "name": "Yoko's Japanese Restaurant and Sushi Bar",
        "type": "restaurant",
        "cuisine": "japanese",
        "latitude": 27.916728,
        "longitude": -82.494323,
        "website": null
    },
    {
        "name": "Osteria Natalina",
        "type": "restaurant",
        "cuisine": "italian",
        "latitude": 27.9168,
        "longitude": -82.494279,
        "website": null
    },
    {
        "name": "Ban Thai",
        "type": "restaurant",
        "cuisine": "thai",
        "latitude": 28.0124613,
        "longitude": -82.7074587,
        "website": null
    },
    {
        "name": "Acropol Inn",
        "type": "restaurant",
        "cuisine": "greek",
        "latitude": 27.99128,
        "longitude": -82.731419,
        "website": null
    },
    {
        "name": "Red Robin",
        "type": "restaurant",
        "cuisine": "burger",
        "latitude": 28.0168399,
        "longitude": -82.734414,
        "website": null
    },
    {
        "name": "Fred's Market",
        "type": "restaurant",
        "cuisine": "regional",
        "latitude": 27.8863734,
        "longitude": -82.3307074,
        "website": "https://www.fredsmarket.com/"
    },
    {
        "name": "Starbucks",
        "type": "cafe",
        "cuisine": "coffee_shop",
        "latitude": 27.983046,
        "longitude": -82.531694,
        "website": "https://www.starbucks.com/store-locator/store/1014453/tpa-airside-c-gate-39-4100-george-j-bean-pkwy-tampa-fl-33607-us"
    },
    {
        "name": "Bob Evans",
        "type": "restaurant",
        "cuisine": "american",
        "latitude": 28.102439,
        "longitude": -82.503052,
        "website": null
    },
    {
        "name": "Burt's Burgers n' Beers",
        "type": "restaurant",
        "cuisine": "burger",
        "latitude": 27.894656,
        "longitude": -82.667622,
        "website": null
    },
    {
        "name": "The Grand Siam",
        "type": "restaurant",
        "cuisine": "thai",
        "latitude": 27.8944126,
        "longitude": -82.6665153,
        "website": null
    },
    {
        "name": "Cicis",
        "type": "restaurant",
        "cuisine": "pizza;buffet",
        "latitude": 28.0532588,
        "longitude": -82.3916812,
        "website": "https://www.cicispizza.com/"
    },
    {
        "name": "Tampa Burgers and Pirates",
        "type": "restaurant",
        "cuisine": "burger",
        "latitude": 27.949646,
        "longitude": -82.460508,
        "website": null
    },
    {
        "name": "Falafel Inn",
        "type": "restaurant",
        "cuisine": "mediterranean",
        "latitude": 27.950183,
        "longitude": -82.460192,
        "website": "https://www.falafelinngrill.com/"
    },
    {
        "name": "Kahwa",
        "type": "cafe",
        "cuisine": "coffee_shop",
        "latitude": 27.95059,
        "longitude": -82.4599581,
        "website": null
    },
    {
        "name": "Paddywagon Irish Pub",
        "type": "pub",
        "cuisine": "Not Specified",
        "latitude": 27.9510434,
        "longitude": -82.4601452,
        "website": null
    },
    {
        "name": "New York New York",
        "type": "restaurant",
        "cuisine": "pizza",
        "latitude": 27.9603989,
        "longitude": -82.4425033,
        "website": "https://www.nynypizzeria.com/Ybor_City.html"
    },
    {
        "name": "Boardwalk Pizza & Gyros",
        "type": "restaurant",
        "cuisine": "pizza",
        "latitude": 28.012629,
        "longitude": -82.732128,
        "website": null
    },
    {
        "name": "Grillsmith",
        "type": "restaurant",
        "cuisine": "Not Specified",
        "latitude": 28.014344,
        "longitude": -82.73388,
        "website": "https://www.grillsmith.com/"
    },
    {
        "name": "Koto Japanese Steakhouse",
        "type": "restaurant",
        "cuisine": "japanese",
        "latitude": 27.939222,
        "longitude": -82.483373,
        "website": "https://kotosteakhouse.com/home.html"
    },
    {
        "name": "Carmel Café and Wine Bar",
        "type": "restaurant",
        "cuisine": "mediterranean",
        "latitude": 28.013938,
        "longitude": -82.709903,
        "website": null
    },
    {
        "name": "Grind House",
        "type": "pub",
        "cuisine": "american",
        "latitude": 27.979885,
        "longitude": -82.710201,
        "website": null
    },
    {
        "name": "Paul's Chicago Pizza",
        "type": "restaurant",
        "cuisine": "pizza",
        "latitude": 27.979938,
        "longitude": -82.71008,
        "website": "https://www.paulschicagopizza.com/"
    },
    {
        "name": "Shiki",
        "type": "restaurant",
        "cuisine": "japanese",
        "latitude": 27.980073,
        "longitude": -82.709719,
        "website": null
    },
    {
        "name": "Applebee's",
        "type": "restaurant",
        "cuisine": "american",
        "latitude": 28.045438,
        "longitude": -82.583435,
        "website": "https://restaurants.applebees.com/en-us/fl/tampa/10606-sheldon-road-94045"
    },
    {
        "name": "The Bricks Ybor",
        "type": "restaurant",
        "cuisine": "american",
        "latitude": 27.9601775,
        "longitude": -82.4443793,
        "website": "https://www.thebricksybor.com/"
    },
    {
        "name": "Starbucks",
        "type": "cafe",
        "cuisine": "coffee_shop",
        "latitude": 28.025545,
        "longitude": -82.151166,
        "website": "https://www.starbucks.com/store-locator/store/6514/thonotosassa-i-4-2701-thonotosassa-rd-plant-city-fl-335631456-us"
    },
    {
        "name": "Cafe Lav Lion",
        "type": "restaurant",
        "cuisine": "Not Specified",
        "latitude": 27.83216,
        "longitude": -82.638974,
        "website": null
    },
    {
        "name": "Starbucks",
        "type": "cafe",
        "cuisine": "coffee_shop",
        "latitude": 28.099643,
        "longitude": -82.691735,
        "website": "https://www.starbucks.com/store-locator/store/1010284/east-lake-ridgemoor-4978-ridgemoor-blvd-palm-harbor-fl-346851744-us"
    },
    {
        "name": "Yard of ale",
        "type": "pub",
        "cuisine": "american",
        "latitude": 27.894436,
        "longitude": -82.669846,
        "website": null
    },
    {
        "name": "Eddie & Sam's",
        "type": "restaurant",
        "cuisine": "pizza",
        "latitude": 27.9488016,
        "longitude": -82.4591923,
        "website": "https://www.eddieandsamspizza.com/"
    },
    {
        "name": "Green Mint Asian Grill",
        "type": "restaurant",
        "cuisine": "vietnamese",
        "latitude": 28.006928,
        "longitude": -82.728073,
        "website": "https://www.greenmintasiangrill.com/"
    },
    {
        "name": "Chuck E. Cheese",
        "type": "restaurant",
        "cuisine": "pizza",
        "latitude": 28.008126,
        "longitude": -82.728043,
        "website": "https://locations.chuckecheese.com/us/fl/clearwater/25921-us-hwy-19"
    },
    {
        "name": "Copperfish",
        "type": "restaurant",
        "cuisine": "Not Specified",
        "latitude": 27.927731,
        "longitude": -82.483067,
        "website": null
    },
    {
        "name": "LongHorn Steakhouse",
        "type": "restaurant",
        "cuisine": "steak_house",
        "latitude": 27.9585599,
        "longitude": -82.5245416,
        "website": null
    },
    {
        "name": "Borincuba Restaurant",
        "type": "restaurant",
        "cuisine": "cuban",
        "latitude": 27.9664794,
        "longitude": -82.4846409,
        "website": null
    },
    {
        "name": "Gateway Pizza and Pasta",
        "type": "restaurant",
        "cuisine": "pizza",
        "latitude": 27.8568894,
        "longitude": -82.6500733,
        "website": null
    },
    {
        "name": "Row Boat",
        "type": "restaurant",
        "cuisine": "greek",
        "latitude": 27.9608863,
        "longitude": -82.4431024,
        "website": "http://rowboatrestaurant.com/"
    },
    {
        "name": "Pita's Republic",
        "type": "restaurant",
        "cuisine": "Not Specified",
        "latitude": 27.960731,
        "longitude": -82.441494,
        "website": null
    },
    {
        "name": "Samurai Blue",
        "type": "restaurant",
        "cuisine": "japanese",
        "latitude": 27.96086,
        "longitude": -82.441874,
        "website": null
    },
    {
        "name": "Pizzeria & Cafe",
        "type": "restaurant",
        "cuisine": "pizza",
        "latitude": 27.960379,
        "longitude": -82.441189,
        "website": null
    },
    {
        "name": "Buffalo Wild Wings",
        "type": "restaurant",
        "cuisine": "wings",
        "latitude": 27.960155,
        "longitude": -82.4406,
        "website": null
    },
    {
        "name": "Geo's",
        "type": "restaurant",
        "cuisine": "Not Specified",
        "latitude": 27.9603742,
        "longitude": -82.4395551,
        "website": "https://geosfinewineandchampagne.com/"
    },
    {
        "name": "La Creperia Cafe",
        "type": "cafe",
        "cuisine": "Not Specified",
        "latitude": 27.960115,
        "longitude": -82.439563,
        "website": null
    },
    {
        "name": "Rasoi",
        "type": "restaurant",
        "cuisine": "indian",
        "latitude": 27.960755,
        "longitude": -82.440301,
        "website": "https://www.rasoitampa.com/"
    },
    {
        "name": "On-a-Roll Sushi",
        "type": "restaurant",
        "cuisine": "sushi",
        "latitude": 27.945897,
        "longitude": -82.456901,
        "website": null
    },
    {
        "name": "Primo Delicafe",
        "type": "cafe",
        "cuisine": "Not Specified",
        "latitude": 27.946052,
        "longitude": -82.456951,
        "website": null
    },
    {
        "name": "Starbucks",
        "type": "cafe",
        "cuisine": "coffee_shop",
        "latitude": 27.9461812,
        "longitude": -82.457984,
        "website": "https://www.starbucks.com/store-locator/store/1005914/hilton-downtown-tampa-211-north-tampa-str-tampa-fl-33602-us"
    },
    {
        "name": "T.C. Choy's Asian Bistro",
        "type": "restaurant",
        "cuisine": "chinese",
        "latitude": 27.941684,
        "longitude": -82.483258,
        "website": null
    },
    {
        "name": "Wooden Spoon",
        "type": "restaurant",
        "cuisine": "Not Specified",
        "latitude": 27.8546913,
        "longitude": -82.3260331,
        "website": "https://www.kazborsgrille.com/"
    },
    {
        "name": "Beef O'Brady's",
        "type": "restaurant",
        "cuisine": "american",
        "latitude": 27.8912083,
        "longitude": -82.2725327,
        "website": "https://www.beefobradys.com/Bloomingdale"
    },
    {
        "name": "Brady's Backyard BBQ",
        "type": "restaurant",
        "cuisine": "barbecue",
        "latitude": 27.9906861,
        "longitude": -82.6909408,
        "website": null
    },
    {
        "name": "China Express",
        "type": "restaurant",
        "cuisine": "chinese",
        "latitude": 27.9245538,
        "longitude": -82.2695872,
        "website": "http://chinaexpressbrandonfl.com/"
    },
    {
        "name": "China One",
        "type": "restaurant",
        "cuisine": "chinese",
        "latitude": 27.9404057,
        "longitude": -82.2665479,
        "website": "http://chinaone-brandon.com/"
    },
    {
        "name": "Ling Express",
        "type": "restaurant",
        "cuisine": "chinese",
        "latitude": 27.8932031,
        "longitude": -82.2730915,
        "website": "https://www.lingexpressbrandon.com/"
    },
    {
        "name": "Pomodoro's Pizza",
        "type": "restaurant",
        "cuisine": "pizza",
        "latitude": 27.940401,
        "longitude": -82.2670951,
        "website": "http://pomodorobrandon.com/"
    },
    {
        "name": "Tasty Thai Cafe",
        "type": "restaurant",
        "cuisine": "asian",
        "latitude": 27.9799814,
        "longitude": -82.7099798,
        "website": "http://mytastythai.menufy.com/"
    },
    {
        "name": "Chai Yo Thai Cuisine",
        "type": "restaurant",
        "cuisine": "asian",
        "latitude": 27.8525749,
        "longitude": -82.3028331,
        "website": "http://chaiyothai.menufy.com/"
    },
    {
        "name": "NY NY Pizza",
        "type": "restaurant",
        "cuisine": "pizza",
        "latitude": 27.7916484,
        "longitude": -82.3165008,
        "website": "http://riverview.nynypizzeria.menufy.com/"
    },
    {
        "name": "Bamboozle Tea Lounge",
        "type": "restaurant",
        "cuisine": "Not Specified",
        "latitude": 27.9485752,
        "longitude": -82.4465391,
        "website": "http://bamboozletealounge.menufy.com/"
    },
    {
        "name": "China Gate",
        "type": "restaurant",
        "cuisine": "chinese",
        "latitude": 28.0598956,
        "longitude": -82.5416673,
        "website": "http://tampachinagate.com/"
    },
    {
        "name": "Island Breeze Pizza",
        "type": "restaurant",
        "cuisine": "pizza",
        "latitude": 28.0687943,
        "longitude": -82.4413843,
        "website": "http://islandbreezepizzatampa.com/"
    },
    {
        "name": "Pizza Famiglia",
        "type": "restaurant",
        "cuisine": "pizza",
        "latitude": 28.0696945,
        "longitude": -82.4443913,
        "website": "http://pizzafamigliafl.com/"
    },
    {
        "name": "Pizza Pino",
        "type": "restaurant",
        "cuisine": "pizza",
        "latitude": 27.8979294,
        "longitude": -82.3697326,
        "website": "http://pizzapinotampa.com/"
    },
    {
        "name": "Chicago Street Pizza",
        "type": "restaurant",
        "cuisine": "pizza",
        "latitude": 28.05541,
        "longitude": -82.4273086,
        "website": "http://chicagopizzausf.com/"
    },
    {
        "name": "Thai Sweet Basil",
        "type": "restaurant",
        "cuisine": "asian",
        "latitude": 28.0942674,
        "longitude": -82.5054295,
        "website": "https://mythaisweetbasil.menufy.com/"
    },
    {
        "name": "Thai Lanna & Sushi Bar",
        "type": "restaurant",
        "cuisine": "asian;thai",
        "latitude": 28.1429553,
        "longitude": -82.3271677,
        "website": "http://thailannaandsushi.menufy.com/"
    },
    {
        "name": "Munchies Pizza and Wings",
        "type": "restaurant",
        "cuisine": "pizza",
        "latitude": 27.9820586,
        "longitude": -82.3098975,
        "website": "https://www.munchiespizzaseffner.com"
    },
    {
        "name": "Asian Kitchen",
        "type": "restaurant",
        "cuisine": "asian",
        "latitude": 27.9363001,
        "longitude": -82.253244,
        "website": "http://asiankitchen-valrico.com/"
    },
    {
        "name": "Bloomingdale Pizza",
        "type": "restaurant",
        "cuisine": "pizza",
        "latitude": 27.8747088,
        "longitude": -82.2688011,
        "website": "http://bloomingdalepizza.menufy.com/"
    },
    {
        "name": "Hibachi Japanese Express",
        "type": "restaurant",
        "cuisine": "japanese",
        "latitude": 28.2341527,
        "longitude": -82.35178,
        "website": "http://hibachijapaneseexpress.com/"
    },
    {
        "name": "The Beer Shed",
        "type": "restaurant",
        "cuisine": "Not Specified",
        "latitude": 27.8654348,
        "longitude": -82.3161681,
        "website": "http://www.thebeershed.com/"
    },
    {
        "name": "Origami Sushi",
        "type": "restaurant",
        "cuisine": "sushi",
        "latitude": 28.0263043,
        "longitude": -82.5525968,
        "website": "http://origamisushi.com/home"
    },
    {
        "name": "Flamestone Grill",
        "type": "restaurant",
        "cuisine": "american",
        "latitude": 28.0377343,
        "longitude": -82.6587868,
        "website": "https://www.flamestonegrill.com/"
    },
    {
        "name": "Burger 21",
        "type": "restaurant",
        "cuisine": "burger",
        "latitude": 28.0431855,
        "longitude": -82.5926917,
        "website": null
    },
    {
        "name": "Starbucks",
        "type": "cafe",
        "cuisine": "coffee_shop",
        "latitude": 27.9223797,
        "longitude": -82.3273095,
        "website": "https://www.starbucks.com/store-locator/store/15415/causeway-blvd-11029-causeway-blvd-unit-e-brandon-fl-335111999-us"
    },
    {
        "name": "Cafe Mardi",
        "type": "cafe",
        "cuisine": "Not Specified",
        "latitude": 27.8931844,
        "longitude": -82.5040225,
        "website": null
    },
    {
        "name": "Oxford Exchange",
        "type": "restaurant",
        "cuisine": "Not Specified",
        "latitude": 27.9449537,
        "longitude": -82.4646007,
        "website": "https://oxfordexchange.com/"
    },
    {
        "name": "City Dog Cantina",
        "type": "restaurant",
        "cuisine": "mexican",
        "latitude": 27.9509663,
        "longitude": -82.4475325,
        "website": "https://checkle.menu/citydogcantina_tampa"
    },
    {
        "name": "Pour House",
        "type": "pub",
        "cuisine": "Not Specified",
        "latitude": 27.9512365,
        "longitude": -82.4475185,
        "website": "https://pour-house-at-grand-central.ueniweb.com/"
    },
    {
        "name": "Bella's Italian Cafe",
        "type": "restaurant",
        "cuisine": "italian",
        "latitude": 27.9284095,
        "longitude": -82.4833436,
        "website": "https://www.bellasitaliancafe.com/"
    },
    {
        "name": "West Shore Pizza",
        "type": "restaurant",
        "cuisine": "pizza",
        "latitude": 27.8522868,
        "longitude": -82.3048485,
        "website": null
    },
    {
        "name": "Square 1 Burgers & Bar",
        "type": "restaurant",
        "cuisine": "burger",
        "latitude": 27.9267605,
        "longitude": -82.3157205,
        "website": null
    },
    {
        "name": "IHOP",
        "type": "restaurant",
        "cuisine": "breakfast;pancake",
        "latitude": 27.9383114,
        "longitude": -82.2633988,
        "website": "https://www.ihop.com/"
    },
    {
        "name": "Dead Bob's Kitchen and Kocktails",
        "type": "restaurant",
        "cuisine": "american",
        "latitude": 27.9090113,
        "longitude": -82.5269603,
        "website": "https://deadbobsstpete.com/"
    },
    {
        "name": "Sushi Maru",
        "type": "restaurant",
        "cuisine": "sushi",
        "latitude": 27.9386091,
        "longitude": -82.3180165,
        "website": null
    },
    {
        "name": "Dale 1891 Gastro Pub",
        "type": "pub",
        "cuisine": "american",
        "latitude": 28.0550348,
        "longitude": -82.5060399,
        "website": "www.dale1891.com"
    },
    {
        "name": "Outback Steakhouse",
        "type": "restaurant",
        "cuisine": "american;steak",
        "latitude": 27.9385975,
        "longitude": -82.3182228,
        "website": "https://www.outback.com/Restaurant/Locations/FL/Brandon/Brandon"
    },
    {
        "name": "Que Pasa Mexican Cantina",
        "type": "restaurant",
        "cuisine": "mexican",
        "latitude": 27.8668721,
        "longitude": -82.6454199,
        "website": "http://que-pasa.net/"
    },
    {
        "name": "Sushi Kampai",
        "type": "restaurant",
        "cuisine": "japanese",
        "latitude": 27.8944113,
        "longitude": -82.3303783,
        "website": "http://www.sushikampaitampa.com/"
    },
    {
        "name": "Chicago Pizza",
        "type": "restaurant",
        "cuisine": "pizza",
        "latitude": 27.866071,
        "longitude": -82.642675,
        "website": null
    },
    {
        "name": "Steel City Brewhouse",
        "type": "pub",
        "cuisine": "Not Specified",
        "latitude": 27.866532,
        "longitude": -82.64338,
        "website": null
    },
    {
        "name": "Alex's Southern Style BBQ",
        "type": "restaurant",
        "cuisine": "american",
        "latitude": 28.081858,
        "longitude": -82.5392397,
        "website": null
    },
    {
        "name": "Beef O'Brady's",
        "type": "restaurant",
        "cuisine": "american",
        "latitude": 28.0958002,
        "longitude": -82.5040008,
        "website": "https://www.beefobradys.com/northdale"
    },
    {
        "name": "FlameStone American Grill",
        "type": "restaurant",
        "cuisine": "Not Specified",
        "latitude": 28.191534,
        "longitude": -82.6347999,
        "website": null
    },
    {
        "name": "Tijuana Flats",
        "type": "restaurant",
        "cuisine": "mexican",
        "latitude": 28.1916723,
        "longitude": -82.6344207,
        "website": null
    },
    {
        "name": "Starbucks",
        "type": "cafe",
        "cuisine": "coffee_shop",
        "latitude": 27.9466958,
        "longitude": -82.5267556,
        "website": "https://www.starbucks.com/store-locator/store/18607/westshore-kennedy-118-south-westshore-blvd-tampa-fl-33609-us"
    },
    {
        "name": "Skyline Chili",
        "type": "restaurant",
        "cuisine": "chili",
        "latitude": 28.033838,
        "longitude": -82.739247,
        "website": null
    },
    {
        "name": "Grapeleaf Express",
        "type": "restaurant",
        "cuisine": "mediterranean",
        "latitude": 27.9422461,
        "longitude": -82.3400511,
        "website": "https://www.grapeleaftampa.com/"
    },
    {
        "name": "Maloney's Irish Pub",
        "type": "pub",
        "cuisine": "regional;irish",
        "latitude": 27.9512201,
        "longitude": -82.4486647,
        "website": "http://www.maloneyslocaldowntown.com/#!about-maloneys-local/c1c0y"
    },
    {
        "name": "Fresh Kitchen",
        "type": "restaurant",
        "cuisine": "international",
        "latitude": 27.929249,
        "longitude": -82.483056,
        "website": null
    },
    {
        "name": "Luigi's",
        "type": "restaurant",
        "cuisine": "Not Specified",
        "latitude": 27.8933993,
        "longitude": -82.4994763,
        "website": null
    },
    {
        "name": "Rouen Thai",
        "type": "restaurant",
        "cuisine": "Not Specified",
        "latitude": 27.8933999,
        "longitude": -82.4995491,
        "website": null
    },
    {
        "name": "California Pizza Kitchen",
        "type": "restaurant",
        "cuisine": "pizza",
        "latitude": 27.963925,
        "longitude": -82.521731,
        "website": null
    },
    {
        "name": "Brio",
        "type": "restaurant",
        "cuisine": "italian",
        "latitude": 27.9657283,
        "longitude": -82.5204406,
        "website": null
    },
    {
        "name": "Champps",
        "type": "restaurant",
        "cuisine": "burger",
        "latitude": 27.9664141,
        "longitude": -82.5211339,
        "website": null
    },
    {
        "name": "The Cheesecake Factory",
        "type": "restaurant",
        "cuisine": "american",
        "latitude": 27.966158,
        "longitude": -82.521109,
        "website": null
    },
    {
        "name": "Starbucks",
        "type": "cafe",
        "cuisine": "coffee_shop",
        "latitude": 27.9646979,
        "longitude": -82.5197323,
        "website": null
    },
    {
        "name": "Texas de Brazil",
        "type": "restaurant",
        "cuisine": "brazilian",
        "latitude": 27.965204,
        "longitude": -82.51289,
        "website": "https://texasdebrazil.com/locations/tampa/"
    },
    {
        "name": "The Capital Grille",
        "type": "restaurant",
        "cuisine": "american",
        "latitude": 27.965848,
        "longitude": -82.521124,
        "website": null
    },
    {
        "name": "The Pub",
        "type": "restaurant",
        "cuisine": "fish_and_chips",
        "latitude": 27.965448,
        "longitude": -82.520602,
        "website": "https://www.experiencethepub.com/"
    },
    {
        "name": "Zen Bistro & Sushi",
        "type": "restaurant",
        "cuisine": "sushi",
        "latitude": 27.965717,
        "longitude": -82.520975,
        "website": null
    },
    {
        "name": "Laughing Cat Bistro",
        "type": "restaurant",
        "cuisine": "italian",
        "latitude": 27.9608858,
        "longitude": -82.4428079,
        "website": "https://thelaughingcat.com/"
    },
    {
        "name": "Carne Chop House",
        "type": "restaurant",
        "cuisine": "latin_american",
        "latitude": 27.9603976,
        "longitude": -82.4418973,
        "website": null
    },
    {
        "name": "Dover Restaurant",
        "type": "restaurant",
        "cuisine": "chinese",
        "latitude": 28.0256939,
        "longitude": -82.2444437,
        "website": null
    },
    {
        "name": "Pita's Republic",
        "type": "restaurant",
        "cuisine": "greek",
        "latitude": 27.7939157,
        "longitude": -82.3358856,
        "website": null
    },
    {
        "name": "Cougar Cafe at WIBMMS",
        "type": "cafe",
        "cuisine": "Not Specified",
        "latitude": 27.9915765,
        "longitude": -82.4076021,
        "website": null
    },
    {
        "name": "Jasmine Thai",
        "type": "restaurant",
        "cuisine": "Not Specified",
        "latitude": 27.9212729,
        "longitude": -82.3167706,
        "website": null
    },
    {
        "name": "Denny's",
        "type": "restaurant",
        "cuisine": "american",
        "latitude": 28.326392,
        "longitude": -82.322559,
        "website": "https://locations.dennys.com/FL/SAN-ANTONIO/248797"
    },
    {
        "name": "Islamorada Fish Company",
        "type": "restaurant",
        "cuisine": "seafood",
        "latitude": 27.93401,
        "longitude": -82.3329309,
        "website": "http://restaurants.basspro.com/FishCompany/Tampa/"
    },
    {
        "name": "La Villa Mexican Grill",
        "type": "restaurant",
        "cuisine": "mexican",
        "latitude": 27.8767142,
        "longitude": -82.2225209,
        "website": null
    },
    {
        "name": "Top Shelf Sports Lounge",
        "type": "restaurant",
        "cuisine": "Not Specified",
        "latitude": 27.9472264,
        "longitude": -82.4560543,
        "website": "https://topshelfsportslounge.com/"
    },
    {
        "name": "Country Skillet",
        "type": "restaurant",
        "cuisine": "american",
        "latitude": 27.915853,
        "longitude": -82.7196618,
        "website": null
    },
    {
        "name": "Moxie's Cafe",
        "type": "restaurant",
        "cuisine": "sandwich",
        "latitude": 27.9478986,
        "longitude": -82.4578187,
        "website": "https://www.moxiesdowntown.com"
    },
    {
        "name": "Fuzzy's Taco Shop",
        "type": "restaurant",
        "cuisine": "mexican",
        "latitude": 27.9209919,
        "longitude": -82.3277225,
        "website": "https://www.fuzzystacoshop.com/"
    },
    {
        "name": "Sushi Ushi",
        "type": "restaurant",
        "cuisine": "japanese;sushi",
        "latitude": 27.9371644,
        "longitude": -82.2591072,
        "website": "https://www.sushiushivalrico.com/"
    },
    {
        "name": "Bartaco",
        "type": "restaurant",
        "cuisine": "tacos",
        "latitude": 27.936296,
        "longitude": -82.475956,
        "website": "https://bartaco.com/location/tampa/"
    },
    {
        "name": "City Pizza",
        "type": "restaurant",
        "cuisine": "Not Specified",
        "latitude": 28.0162947,
        "longitude": -82.123047,
        "website": null
    },
    {
        "name": "Top Shelf",
        "type": "restaurant",
        "cuisine": "Not Specified",
        "latitude": 28.0165516,
        "longitude": -82.122997,
        "website": null
    },
    {
        "name": "Mr. Sebas Ice Cream",
        "type": "restaurant",
        "cuisine": "Not Specified",
        "latitude": 28.016511,
        "longitude": -82.12322,
        "website": null
    },
    {
        "name": "Whistle Stop Café",
        "type": "cafe",
        "cuisine": "Not Specified",
        "latitude": 28.0150838,
        "longitude": -82.1229933,
        "website": null
    },
    {
        "name": "Snellgrove's Restaurant",
        "type": "restaurant",
        "cuisine": "Not Specified",
        "latitude": 28.0148559,
        "longitude": -82.1231967,
        "website": null
    },
    {
        "name": "Milly's hot dogs",
        "type": "cafe",
        "cuisine": "Not Specified",
        "latitude": 28.0146763,
        "longitude": -82.1231472,
        "website": null
    },
    {
        "name": "Manatee bay Café & sandwich shop",
        "type": "cafe",
        "cuisine": "Not Specified",
        "latitude": 28.0145073,
        "longitude": -82.1231266,
        "website": null
    },
    {
        "name": "Krazy Cup Café",
        "type": "cafe",
        "cuisine": "Not Specified",
        "latitude": 28.0151378,
        "longitude": -82.1227931,
        "website": null
    },
    {
        "name": "The Landing Club & Café",
        "type": "restaurant",
        "cuisine": "Not Specified",
        "latitude": 27.786947,
        "longitude": -82.375085,
        "website": "https://www.watersetfl.com/lifestyle/amenities/"
    },
    {
        "name": "Juniper Dining",
        "type": "restaurant",
        "cuisine": "Not Specified",
        "latitude": 28.0599982,
        "longitude": -82.4183229,
        "website": null
    },
    {
        "name": "Outback Steakhouse",
        "type": "restaurant",
        "cuisine": "american;steak",
        "latitude": 27.9628105,
        "longitude": -82.5153757,
        "website": null
    },
    {
        "name": "The Lab Coffee - Seminole Heights",
        "type": "cafe",
        "cuisine": "Not Specified",
        "latitude": 27.9846989,
        "longitude": -82.4595292,
        "website": "https://www.thelabcoffee.com/"
    },
    {
        "name": "Irish 31",
        "type": "pub",
        "cuisine": "irish;pub",
        "latitude": 28.0434218,
        "longitude": -82.5974645,
        "website": null
    },
    {
        "name": "Village Inn",
        "type": "restaurant",
        "cuisine": "american",
        "latitude": 27.9210441,
        "longitude": -82.318137,
        "website": null
    },
    {
        "name": "Catch 23",
        "type": "restaurant",
        "cuisine": "seafood",
        "latitude": 28.043394,
        "longitude": -82.5971273,
        "website": null
    },
    {
        "name": "Tijuana Flats",
        "type": "restaurant",
        "cuisine": "mexican",
        "latitude": 28.0432019,
        "longitude": -82.5923969,
        "website": null
    },
    {
        "name": "The Grind Coffee Bar and Cafe",
        "type": "cafe",
        "cuisine": "coffee_shop",
        "latitude": 28.043235,
        "longitude": -82.5919544,
        "website": null
    },
    {
        "name": "Tampa Pizza Company",
        "type": "restaurant",
        "cuisine": "pizza",
        "latitude": 28.0429154,
        "longitude": -82.5923111,
        "website": null
    },
    {
        "name": "Pizza Hut",
        "type": "restaurant",
        "cuisine": "pizza",
        "latitude": 27.9902223,
        "longitude": -82.121139,
        "website": "https://locations.pizzahut.com/fl/plant-city/2316-james-redman-pkwy"
    },
    {
        "name": "Duke's Brewhouse",
        "type": "restaurant",
        "cuisine": "Not Specified",
        "latitude": 27.9902289,
        "longitude": -82.1201602,
        "website": null
    },
    {
        "name": "Wasabi",
        "type": "restaurant",
        "cuisine": "japanese",
        "latitude": 27.9885057,
        "longitude": -82.123427,
        "website": null
    },
    {
        "name": "Maloneys Local Irish Pub",
        "type": "pub",
        "cuisine": "Not Specified",
        "latitude": 28.0429713,
        "longitude": -82.5918321,
        "website": null
    },
    {
        "name": "The Corner Bakery Cafe",
        "type": "restaurant",
        "cuisine": "sandwich",
        "latitude": 27.9397306,
        "longitude": -82.3223712,
        "website": "https://www.cornerbakerycafe.com/"
    },
    {
        "name": "Sushi Ninja",
        "type": "restaurant",
        "cuisine": "sushi",
        "latitude": 27.8909226,
        "longitude": -82.2722266,
        "website": "http://www.sushininjafl.com/"
    },
    {
        "name": "Thai Chilli Pepper",
        "type": "restaurant",
        "cuisine": "thai",
        "latitude": 27.8916462,
        "longitude": -82.2723892,
        "website": "https://www.thaichillipepper.com/"
    },
    {
        "name": "Asian Kitchen",
        "type": "restaurant",
        "cuisine": "asian",
        "latitude": 28.0512596,
        "longitude": -82.7362766,
        "website": null
    },
    {
        "name": "Nick's Pizzaria & Wings",
        "type": "restaurant",
        "cuisine": "Not Specified",
        "latitude": 27.9978247,
        "longitude": -82.1228876,
        "website": "https://nickspizzaplantcity.com/"
    },
    {
        "name": "Anthony's New York Style Pizza",
        "type": "restaurant",
        "cuisine": "pizza",
        "latitude": 28.0598291,
        "longitude": -82.5417018,
        "website": "http://anthonysnewyork.com"
    },
    {
        "name": "Jo-To Japanese Steakhouse",
        "type": "restaurant",
        "cuisine": "japanese",
        "latitude": 27.9251125,
        "longitude": -82.2700185,
        "website": "http://brandonjotos.com/"
    },
    {
        "name": "Taqueria Doña Maria",
        "type": "restaurant",
        "cuisine": "mexican",
        "latitude": 27.9255391,
        "longitude": -82.2708312,
        "website": "http://www.taqueriadonamaria.com/"
    },
    {
        "name": "Whistle Stop Grill & Bar",
        "type": "restaurant",
        "cuisine": "american",
        "latitude": 27.9910234,
        "longitude": -82.6968402,
        "website": null
    },
    {
        "name": "Old Heights Bistro",
        "type": "restaurant",
        "cuisine": "Not Specified",
        "latitude": 27.9881571,
        "longitude": -82.4509472,
        "website": null
    },
    {
        "name": "Bob Evans",
        "type": "restaurant",
        "cuisine": "american",
        "latitude": 28.0085546,
        "longitude": -82.3017652,
        "website": "https://www.bobevans.com/"
    },
    {
        "name": "Tijuana Flats",
        "type": "restaurant",
        "cuisine": "mexican",
        "latitude": 28.0199279,
        "longitude": -82.7329812,
        "website": null
    },
    {
        "name": "Features Gastropub",
        "type": "restaurant",
        "cuisine": "Not Specified",
        "latitude": 27.8485957,
        "longitude": -82.3487321,
        "website": "https://www.featuresgastropub.com/"
    },
    {
        "name": "The Stein & Vine",
        "type": "pub",
        "cuisine": "Not Specified",
        "latitude": 27.8927894,
        "longitude": -82.2952123,
        "website": "http://thesteinandvine.com/"
    },
    {
        "name": "Bar Fly",
        "type": "restaurant",
        "cuisine": "seafood",
        "latitude": 27.9906378,
        "longitude": -82.6882744,
        "website": null
    },
    {
        "name": "Arco Iris",
        "type": "restaurant",
        "cuisine": "regional;cuban",
        "latitude": 27.966501,
        "longitude": -82.4992431,
        "website": null
    },
    {
        "name": "Happy Fish",
        "type": "restaurant",
        "cuisine": "peruvian;pizza",
        "latitude": 27.9755467,
        "longitude": -82.4862867,
        "website": null
    },
    {
        "name": "Grillsmith",
        "type": "restaurant",
        "cuisine": "Not Specified",
        "latitude": 28.0771719,
        "longitude": -82.5063015,
        "website": null
    },
    {
        "name": "Senor Tequila Mexican Restaurant",
        "type": "restaurant",
        "cuisine": "international",
        "latitude": 28.0500484,
        "longitude": -82.5032236,
        "website": "http://www.senortequilamexicanrestaurant.com/"
    },
    {
        "name": "Piccola Italia Bistro",
        "type": "restaurant",
        "cuisine": "Not Specified",
        "latitude": 27.9810268,
        "longitude": -82.4821889,
        "website": "https://www.piccolaitaliabistro.com/"
    },
    {
        "name": "Aki Sushi Bar",
        "type": "cafe",
        "cuisine": "sushi",
        "latitude": 28.0365964,
        "longitude": -82.6600504,
        "website": "https://www.akisushioldsmar.com/"
    },
    {
        "name": "Zapata's",
        "type": "cafe",
        "cuisine": "mexican",
        "latitude": 28.0365206,
        "longitude": -82.6598439,
        "website": null
    },
    {
        "name": "Three Coins Diner",
        "type": "restaurant",
        "cuisine": "american;greek",
        "latitude": 28.0159725,
        "longitude": -82.4515088,
        "website": "https://3coinsdiner.wixsite.com/3coinsdiner"
    },
    {
        "name": "Anthony's Coal Fired Pizza",
        "type": "restaurant",
        "cuisine": "Not Specified",
        "latitude": 27.938231,
        "longitude": -82.3158359,
        "website": null
    },
    {
        "name": "Olde Town Pizzeria",
        "type": "restaurant",
        "cuisine": "italian",
        "latitude": 27.8930531,
        "longitude": -82.2867234,
        "website": "https://www.oldetownpizzeria.com/"
    },
    {
        "name": "Fresh Healthy Café",
        "type": "restaurant",
        "cuisine": "Not Specified",
        "latitude": 28.1872369,
        "longitude": -82.3508018,
        "website": "https://freshrestaurants.com/"
    },
    {
        "name": "Pepe’s Cuban Cafe",
        "type": "restaurant",
        "cuisine": "Not Specified",
        "latitude": 28.1845182,
        "longitude": -82.4130131,
        "website": null
    },
    {
        "name": "Starbucks",
        "type": "cafe",
        "cuisine": "coffee_shop",
        "latitude": 28.1833614,
        "longitude": -82.3528483,
        "website": "https://www.starbucks.com/store-locator/store/6407/bruce-b-downs-blvd-sr-56-1800-bruce-b-downs-blvd-wesley-chapel-fl-335448632"
    },
    {
        "name": "Very Berry Brunch",
        "type": "restaurant",
        "cuisine": "Not Specified",
        "latitude": 28.0321833,
        "longitude": -82.4203788,
        "website": "https://www.verryberrytampa.com/"
    },
    {
        "name": "Saigon Cafe",
        "type": "restaurant",
        "cuisine": "vietnamese;asian",
        "latitude": 28.2319751,
        "longitude": -82.1802808,
        "website": "https://www.saigoncafezep.com/"
    },
    {
        "name": "Manolo’s Ristorante",
        "type": "restaurant",
        "cuisine": "italian",
        "latitude": 28.2342983,
        "longitude": -82.180299,
        "website": null
    },
    {
        "name": "Living Food Bakery & Cafe",
        "type": "cafe",
        "cuisine": "Not Specified",
        "latitude": 28.2379094,
        "longitude": -82.1847895,
        "website": "https://livingfoodbakery.com/"
    },
    {
        "name": "Amici Pizza",
        "type": "restaurant",
        "cuisine": "pizza",
        "latitude": 28.2274018,
        "longitude": -82.3759385,
        "website": "https://www.amici-pizza.com/"
    },
    {
        "name": "Ice Cream Theory",
        "type": "cafe",
        "cuisine": "ice_cream",
        "latitude": 28.0350107,
        "longitude": -82.6540712,
        "website": null
    },
    {
        "name": "The Silo Eatery",
        "type": "cafe",
        "cuisine": "sandwich;coffee_shop",
        "latitude": 27.9463922,
        "longitude": -82.3555483,
        "website": null
    },
    {
        "name": "Whiskey Wings",
        "type": "restaurant",
        "cuisine": "Not Specified",
        "latitude": 28.0371542,
        "longitude": -82.6570053,
        "website": "https://whiskeywings.com/oldsmar/"
    },
    {
        "name": "Chef Li",
        "type": "restaurant",
        "cuisine": "Not Specified",
        "latitude": 28.0372299,
        "longitude": -82.6572387,
        "website": "https://www.chefli.net/"
    },
    {
        "name": "Ducky’s",
        "type": "restaurant",
        "cuisine": "Not Specified",
        "latitude": 27.9754714,
        "longitude": -82.5321038,
        "website": null
    },
    {
        "name": "Bay Coffee & Tea Company",
        "type": "cafe",
        "cuisine": "Not Specified",
        "latitude": 27.9754412,
        "longitude": -82.5323414,
        "website": null
    },
    {
        "name": "Caffeine Roasters",
        "type": "cafe",
        "cuisine": "american;breakfast;cake;coffee_shop;sandwich;tea",
        "latitude": 27.9445502,
        "longitude": -82.4847243,
        "website": "https://caffeineusa.com"
    },
    {
        "name": "Caffeine Roasters",
        "type": "cafe",
        "cuisine": "breakfast;cake;coffee_shop;tea",
        "latitude": 27.9513819,
        "longitude": -82.4600734,
        "website": "https://caffeineusa.com"
    },
    {
        "name": "Grimaldi's Pizzeria",
        "type": "restaurant",
        "cuisine": "pizza",
        "latitude": 27.9462221,
        "longitude": -82.5287573,
        "website": "https://www.grimaldispizzeria.com/"
    },
    {
        "name": "Indian Cuisine",
        "type": "cafe",
        "cuisine": "indian",
        "latitude": 28.0424547,
        "longitude": -82.6777556,
        "website": "http://desitadkaoldsmar.com/"
    },
    {
        "name": "PJ Dolan’s",
        "type": "restaurant",
        "cuisine": "Not Specified",
        "latitude": 28.081239,
        "longitude": -82.4270013,
        "website": null
    },
    {
        "name": "Daddy Dawgs",
        "type": "restaurant",
        "cuisine": "breakfast",
        "latitude": 28.02337,
        "longitude": -82.7081856,
        "website": null
    },
    {
        "name": "Flapjacks",
        "type": "restaurant",
        "cuisine": "breakfast",
        "latitude": 28.0233159,
        "longitude": -82.7082589,
        "website": null
    },
    {
        "name": "Starbucks",
        "type": "cafe",
        "cuisine": "coffee_shop",
        "latitude": 28.0144237,
        "longitude": -82.7339714,
        "website": "https://www.starbucks.com/store-locator/store/1052851/countryside-mall-kiosk-27001-us-highway-19-north-clearwater-fl-33761-us"
    },
    {
        "name": "Earl of Sandwich",
        "type": "restaurant",
        "cuisine": "sandwich",
        "latitude": 27.8179947,
        "longitude": -82.6391493,
        "website": null
    },
    {
        "name": "Red Mesa",
        "type": "restaurant",
        "cuisine": "mexican",
        "latitude": 27.8168761,
        "longitude": -82.6389891,
        "website": "https://redmesarestaurant.com/"
    },
    {
        "name": "Anthony's Coal Fired Pizza",
        "type": "restaurant",
        "cuisine": "pizza;wings",
        "latitude": 28.0135513,
        "longitude": -82.7098232,
        "website": null
    },
    {
        "name": "Another Broken Egg Cafe",
        "type": "restaurant",
        "cuisine": "brunch",
        "latitude": 28.014114,
        "longitude": -82.7098292,
        "website": null
    },
    {
        "name": "Pickles Plus Deli",
        "type": "restaurant",
        "cuisine": "american",
        "latitude": 28.0135481,
        "longitude": -82.70999,
        "website": null
    },